{"data": [{"id": 6659, "name": "E 50 St & Park Ave", "address": "E 50 St & Park Ave, Manhattan Community Board 5, NY 10022", "type": "bike-station", "grid-id": 701, "b-score": null, "coordinates": [-73.974651098, 40.757389545]}, {"id": 6224, "name": "8 Ave & W 24 St", "address": "8 Ave & W 24 St, Chelsea, NY 10001", "type": "bike-station", "grid-id": 259, "b-score": null, "coordinates": [-73.99807110428809, 40.74591072834279]}, {"id": 7636, "name": "E 123 St & Lexington Ave", "address": "E 123 St & Lexington Ave, East Harlem, NY 10035", "type": "bike-station", "grid-id": 1339, "b-score": null, "coordinates": [-73.937734962, 40.802818656]}, {"id": 5616, "name": "E 9 St & Avenue C", "address": "E 9 St & Avenue C, East Village, NY 10009", "type": "bike-station", "grid-id": 616, "b-score": null, "coordinates": [-73.97768752, 40.72521311]}, {"id": 6498, "name": "E 47 St & 1 Ave", "address": "E 47 St & 1 Ave, Manhattan Community Board 6, NY 10158", "type": "bike-station", "grid-id": 846, "b-score": null, "coordinates": [-73.967844, 40.752069]}, {"id": 6569, "name": "W 36 St & 9 Ave", "address": "W 36 St & 9 Ave, Manhattan Community Board 4, NY 10018", "type": "bike-station", "grid-id": 291, "b-score": null, "coordinates": [-73.995181322, 40.75442493]}, {"id": 6551, "name": "W 44 St & 5 Ave", "address": "W 44 St & 5 Ave, Manhattan Community Board 5, NY 10036", "type": "bike-station", "grid-id": 550, "b-score": null, "coordinates": [-73.98014437, 40.75500254]}, {"id": 8679, "name": "10 Ave & W 215 St", "address": "10 Ave & W 215 St, Manhattan Community Board 12, NY 10034", "type": "bike-station", "grid-id": 1563, "b-score": null, "coordinates": [-73.91519755125046, 40.86932465640094]}, {"id": 5270, "name": "Division St & Bowery", "address": "Division St & Bowery, Manhattan Community Board 3, NY 10002", "type": "bike-station", "grid-id": 276, "b-score": null, "coordinates": [-73.996732, 40.714193]}, {"id": 5847, "name": "Washington St & Barrow St", "address": "Washington St & Barrow St, Manhattan Community Board 2, NY 10014", "type": "bike-station", "grid-id": 83, "b-score": null, "coordinates": [-74.008769094944, 40.73191132323174]}, {"id": 5114, "name": "West Thames St", "address": "West Thames St, Manhattan Community Board 1, NY 10280", "type": "bike-station", "grid-id": 17, "b-score": null, "coordinates": [-74.01713445, 40.70834698]}, {"id": 6492, "name": "W 33 St & 10 Ave", "address": "W 33 St & 10 Ave, Manhattan Community Board 4, NY 10001", "type": "bike-station", "grid-id": 215, "b-score": null, "coordinates": [-73.99937599897385, 40.75377336836039]}, {"id": 5033, "name": "Broadway & Morris St", "address": "Broadway & Morris St, Financial District, NY 10006", "type": "bike-station", "grid-id": 39, "b-score": null, "coordinates": [-74.01321887969969, 40.705945132708806]}, {"id": 6474, "name": "E 40 St & 5 Ave", "address": "E 40 St & 5 Ave, Manhattan Community Board 5, NY 10016", "type": "bike-station", "grid-id": 551, "b-score": null, "coordinates": [-73.9816324043, 40.752062307]}, {"id": 5971, "name": "E 20 St & 2 Ave", "address": "E 20 St & 2 Ave, Manhattan Community Board 6, NY 10009", "type": "bike-station", "grid-id": 560, "b-score": null, "coordinates": [-73.98205027, 40.73587678]}, {"id": 7528, "name": "E 106 St & Madison Ave", "address": "E 106 St & Madison Ave, Manhattan Community Board 11, NY 10029", "type": "bike-station", "grid-id": 1110, "b-score": null, "coordinates": [-73.94945003, 40.7934337]}, {"id": 7623, "name": "Riverside Dr & W 104 St", "address": "Riverside Dr & W 104 St, Bloomingdale, NY 10025", "type": "bike-station", "grid-id": 729, "b-score": null, "coordinates": [-73.9711457439, 40.8013434]}, {"id": 6289, "name": "Broadway & W 29 St", "address": "Broadway & W 29 St, Midtown South, NY 10019", "type": "bike-station", "grid-id": 416, "b-score": null, "coordinates": [-73.98855723, 40.7462009]}, {"id": 6593, "name": "W 43 St & 6 Ave", "address": "W 43 St & 6 Ave, Manhattan Community Board 5, NY -1", "type": "bike-station", "grid-id": 501, "b-score": null, "coordinates": [-73.98316936, 40.75527307]}, {"id": 7648, "name": "2 Ave & E 125 St", "address": "2 Ave & E 125 St, Manhattan Community Board 11, NY 10035", "type": "bike-station", "grid-id": 1430, "b-score": null, "coordinates": [-73.933509, 40.802554]}, {"id": 8085, "name": "St. Nicholas Ave & W 157 St", "address": "St. Nicholas Ave & W 157 St, Manhattan Community Board 12, NY 10032", "type": "bike-station", "grid-id": 1279, "b-score": null, "coordinates": [-73.94102, 40.832314]}, {"id": 8278, "name": "Amsterdam Ave & W 175 St", "address": "Amsterdam Ave & W 175 St, Manhattan Community Board 12, NY 10033", "type": "bike-station", "grid-id": 1407, "b-score": null, "coordinates": [-73.933720231, 40.844017506]}, {"id": 6762, "name": "3 Ave & E 62 St", "address": "3 Ave & E 62 St, Manhattan Community Board 8, NY 10065", "type": "bike-station", "grid-id": 880, "b-score": null, "coordinates": [-73.965558529, 40.763005137]}, {"id": 6432, "name": "E 40 St & Park Ave", "address": "E 40 St & Park Ave, Manhattan Community Board 6, NY 10016", "type": "bike-station", "grid-id": 602, "b-score": null, "coordinates": [-73.978326, 40.750756]}, {"id": 6541, "name": "E 48 St & 3 Ave", "address": "E 48 St & 3 Ave, Manhattan Community Board 6, NY 10017", "type": "bike-station", "grid-id": 755, "b-score": null, "coordinates": [-73.971878855, 40.7546011026]}, {"id": 7540, "name": "E 114 St & 1 Ave", "address": "E 114 St & 1 Ave, East Harlem, NY 10029", "type": "bike-station", "grid-id": 1389, "b-score": null, "coordinates": [-73.936066389, 40.794544697]}, {"id": 7522, "name": "1 Ave & E 110 St", "address": "1 Ave & E 110 St, Manhattan Community Board 11, NY 10029", "type": "bike-station", "grid-id": 1345, "b-score": null, "coordinates": [-73.938260317, 40.792379975]}, {"id": 7180, "name": "E 84 St & 1 Ave", "address": "E 84 St & 1 Ave, Manhattan Community Board 8, NY 10028", "type": "bike-station", "grid-id": 1120, "b-score": null, "coordinates": [-73.950523615, 40.775858283]}, {"id": 7577, "name": "Central Park W & W 103 St", "address": "Central Park W & W 103 St, Bloomingdale, NY 10025", "type": "bike-station", "grid-id": 902, "b-score": null, "coordinates": [-73.96188408136368, 40.79558954105342]}, {"id": 5880, "name": "W 4 St & 7 Ave S", "address": "W 4 St & 7 Ave S, Manhattan Community Board 2, NY 10014", "type": "bike-station", "grid-id": 188, "b-score": null, "coordinates": [-74.002883434, 40.73415494]}, {"id": 5964, "name": "Bank St & Washington St", "address": "Bank St & Washington St, Manhattan Community Board 2, NY 10014", "type": "bike-station", "grid-id": 81, "b-score": null, "coordinates": [-74.00859207, 40.7361967]}, {"id": 5989, "name": "W 15 St & 6 Ave", "address": "W 15 St & 6 Ave, Chelsea, NY 10019", "type": "bike-station", "grid-id": 300, "b-score": null, "coordinates": [-73.99642959237099, 40.738046142482766]}, {"id": 6830, "name": "E 63 St & 3 Ave", "address": "E 63 St & 3 Ave, nan, NY 10036", "type": "bike-station", "grid-id": 879, "b-score": null, "coordinates": [-73.985508323, 40.757475019]}, {"id": 7735, "name": "5 Ave & W 131 St", "address": "5 Ave & W 131 St, East Harlem, NY 10037", "type": "bike-station", "grid-id": 1291, "b-score": null, "coordinates": [-73.939834356, 40.810039997]}, {"id": 6303, "name": "1 Ave & E 39 St", "address": "1 Ave & E 39 St, Murray Hill, NY 10174", "type": "bike-station", "grid-id": 759, "b-score": null, "coordinates": [-73.97113, 40.74714]}, {"id": 6115, "name": "W 15 St & 10 Ave", "address": "W 15 St & 10 Ave, Manhattan Community Board 4, NY 10019", "type": "bike-station", "grid-id": 111, "b-score": null, "coordinates": [-74.00747358798981, 40.74275382865903]}, {"id": 7149, "name": "Amsterdam Ave & W 66 St", "address": "Amsterdam Ave & W 66 St, Manhattan Community Board 7, NY 10023", "type": "bike-station", "grid-id": 491, "b-score": null, "coordinates": [-73.98470567, 40.7746671]}, {"id": 5703, "name": "Ave A & E 11 St", "address": "Ave A & E 11 St, Alphabet City, NY 10009", "type": "bike-station", "grid-id": 564, "b-score": null, "coordinates": [-73.981589913, 40.72884357]}, {"id": 6089, "name": "Lexington Ave & E 24 St", "address": "Lexington Ave & E 24 St, Manhattan Community Board 6, NY 10035", "type": "bike-station", "grid-id": 510, "b-score": null, "coordinates": [-73.98409214, 40.74025878]}, {"id": 5820, "name": "E 13 St & 2 Ave", "address": "E 13 St & 2 Ave, Manhattan Community Board 3, NY 10035", "type": "bike-station", "grid-id": 469, "b-score": null, "coordinates": [-73.9853024482727, 40.73153937464073]}, {"id": 6726, "name": "11 Ave & W 41 St", "address": "11 Ave & W 41 St, Hell's Kitchen, NY 10018", "type": "bike-station", "grid-id": 251, "b-score": null, "coordinates": [-73.99884222, 40.76030096]}, {"id": 6991, "name": "E 75 St & 3 Ave", "address": "E 75 St & 3 Ave, Lenox Hill, NY 10021", "type": "bike-station", "grid-id": 998, "b-score": null, "coordinates": [-73.95772297, 40.77112927]}, {"id": 7286, "name": "1 Ave & E 94 St", "address": "1 Ave & E 94 St, Manhattan Community Board 8, NY 10128", "type": "bike-station", "grid-id": 1211, "b-score": null, "coordinates": [-73.945997953, 40.781989217]}, {"id": 6860, "name": "E 65 St & 2 Ave", "address": "E 65 St & 2 Ave, Manhattan Community Board 8, NY 10065", "type": "bike-station", "grid-id": 919, "b-score": null, "coordinates": [-73.96222069859505, 40.76471851944339]}, {"id": 8119, "name": "W 159 St & Edgecombe Ave", "address": "W 159 St & Edgecombe Ave, Manhattan Community Board 12, NY 10032", "type": "bike-station", "grid-id": 1322, "b-score": null, "coordinates": [-73.939326, 40.833303]}, {"id": 6157, "name": "10 Ave & W 14 St", "address": "10 Ave & W 14 St, Manhattan Community Board 2, NY 10019", "type": "bike-station", "grid-id": 112, "b-score": null, "coordinates": [-74.008388758, 40.741734385]}, {"id": 5712, "name": "E 5 St & Cooper Sq", "address": "E 5 St & Cooper Sq, Manhattan Community Board 3, NY 10003", "type": "bike-station", "grid-id": 385, "b-score": null, "coordinates": [-73.990993, 40.72769]}, {"id": 7100, "name": "5 Ave & E 72 St", "address": "5 Ave & E 72 St, Manhattan Community Board 8, NY 10021", "type": "bike-station", "grid-id": 835, "b-score": null, "coordinates": [-73.96685276, 40.77282817]}, {"id": 7903, "name": "Broadway & W 133 St", "address": "Broadway & W 133 St, Manhattanville, NY 10031", "type": "bike-station", "grid-id": 1011, "b-score": null, "coordinates": [-73.956001282, 40.81917119]}, {"id": 7701, "name": "5 Ave & W 126 St", "address": "5 Ave & W 126 St, Manhattan Community Board 10, NY 10027", "type": "bike-station", "grid-id": 1292, "b-score": null, "coordinates": [-73.941750884, 40.807295203]}, {"id": 5406, "name": "Rivington St & Ridge St", "address": "Rivington St & Ridge St, Lower East Side, NY 10002", "type": "bike-station", "grid-id": 522, "b-score": null, "coordinates": [-73.983213544, 40.718505502]}, {"id": 6215, "name": "W 25 St & 6 Ave", "address": "W 25 St & 6 Ave, Manhattan Community Board 5, NY 10001", "type": "bike-station", "grid-id": 376, "b-score": null, "coordinates": [-73.991449, 40.743954]}, {"id": 7685, "name": "Mt Morris Park W & W 120 St", "address": "Mt Morris Park W & W 120 St, Manhattan Community Board 11, NY 10027", "type": "bike-station", "grid-id": 1198, "b-score": null, "coordinates": [-73.945822597, 40.804135323]}, {"id": 7372, "name": "5 Ave & E 93 St", "address": "5 Ave & E 93 St, nan, NY 10129", "type": "bike-station", "grid-id": 989, "b-score": null, "coordinates": [-73.957481, 40.7857851]}, {"id": 8018, "name": "W 146 St & Broadway", "address": "W 146 St & Broadway, Manhattan Community Board 9, NY 10031", "type": "bike-station", "grid-id": 1092, "b-score": null, "coordinates": [-73.949527502, 40.82699275]}, {"id": 7769, "name": "5 Ave & E 135 St", "address": "5 Ave & E 135 St, East Harlem, NY 10037", "type": "bike-station", "grid-id": 1334, "b-score": null, "coordinates": [-73.937838, 40.812191]}, {"id": 5128, "name": "Catherine St & Monroe St", "address": "Catherine St & Monroe St, Manhattan Community Board 3, NY 10038", "type": "bike-station", "grid-id": 278, "b-score": null, "coordinates": [-73.99681282, 40.711214542]}, {"id": 6822, "name": "1 Ave & E 68 St", "address": "1 Ave & E 68 St, Manhattan Community Board 8, NY 10021", "type": "bike-station", "grid-id": 1001, "b-score": null, "coordinates": [-73.958028793, 40.765041232]}, {"id": 5145, "name": "Albany St & Greenwich St", "address": "Albany St & Greenwich St, Manhattan Community Board 1, NY 10006", "type": "bike-station", "grid-id": 37, "b-score": null, "coordinates": [-74.013527274, 40.709032416]}, {"id": 6039, "name": "Washington St & Gansevoort St", "address": "Washington St & Gansevoort St, Manhattan Community Board 2, NY 10014", "type": "bike-station", "grid-id": 113, "b-score": null, "coordinates": [-74.007904172, 40.738926172]}, {"id": 5484, "name": "Allen St & Stanton St", "address": "Allen St & Stanton St, Manhattan Community Board 3, NY 10002", "type": "bike-station", "grid-id": 430, "b-score": null, "coordinates": [-73.989157438, 40.721870422]}, {"id": 6584, "name": "E 47 St & Park Ave", "address": "E 47 St & Park Ave, Midtown East, NY 10035", "type": "bike-station", "grid-id": 702, "b-score": null, "coordinates": [-73.97498696, 40.75510267]}, {"id": 7453, "name": "Central Park W & W 91 St", "address": "Central Park W & W 91 St, nan, NY 10025", "type": "bike-station", "grid-id": 826, "b-score": null, "coordinates": [-73.96680057048798, 40.78866499127884]}, {"id": 5779, "name": "E 14 St & 1 Ave", "address": "E 14 St & 1 Ave, Gramercy, NY 10003", "type": "bike-station", "grid-id": 515, "b-score": null, "coordinates": [-73.983035684, 40.731413126]}, {"id": 5436, "name": "E Houston St & Columbia St", "address": "E Houston St & Columbia St, Manhattan Community Board 3, NY 10009", "type": "bike-station", "grid-id": 619, "b-score": null, "coordinates": [-73.97871628403664, 40.71978635452822]}, {"id": 7617, "name": "Central Park North & Adam Clayton Powell Blvd", "address": "Central Park North & Adam Clayton Powell Blvd, nan, NY 10026", "type": "bike-station", "grid-id": 1022, "b-score": null, "coordinates": [-73.955613, 40.799484]}, {"id": 7599, "name": "E 115 St & Madison Ave", "address": "E 115 St & Madison Ave, Manhattan Community Board 11, NY 10029", "type": "bike-station", "grid-id": 1201, "b-score": null, "coordinates": [-73.944846, 40.7989445]}, {"id": 5955, "name": "Perry St & Greenwich Ave", "address": "Perry St & Greenwich Ave, Manhattan Community Board 2, NY 10014", "type": "bike-station", "grid-id": 225, "b-score": null, "coordinates": [-74.000939, 40.735918]}, {"id": 6422, "name": "E 44 St & 2 Ave", "address": "E 44 St & 2 Ave, Manhattan Community Board 6, NY 10017", "type": "bike-station", "grid-id": 757, "b-score": null, "coordinates": [-73.97138714790344, 40.75118387463277]}, {"id": 6248, "name": "5 Ave & E 29 St", "address": "5 Ave & E 29 St, Manhattan Community Board 5, NY 10016", "type": "bike-station", "grid-id": 461, "b-score": null, "coordinates": [-73.986990452, 40.74501884]}, {"id": 5746, "name": "E 10 St & 2 Ave", "address": "E 10 St & 2 Ave, Manhattan Community Board 3, NY 10003", "type": "bike-station", "grid-id": 470, "b-score": null, "coordinates": [-73.986573219, 40.729723334]}, {"id": 7688, "name": "Frederick Douglass Blvd & W 117 St", "address": "Frederick Douglass Blvd & W 117 St, Manhattan Community Board 10, NY 10026", "type": "bike-station", "grid-id": 1019, "b-score": null, "coordinates": [-73.954692, 40.805159]}, {"id": 5532, "name": "Mercer St & Spring St", "address": "Mercer St & Spring St, Manhattan Community Board 2, NY 10012", "type": "bike-station", "grid-id": 232, "b-score": null, "coordinates": [-73.999530077, 40.723501682]}, {"id": 5184, "name": "West St & Liberty St", "address": "West St & Liberty St, Manhattan Community Board 1, NY 10281", "type": "bike-station", "grid-id": 36, "b-score": null, "coordinates": [-74.014847, 40.711444]}, {"id": 7079, "name": "Central Park West & W 68 St", "address": "Central Park West & W 68 St, nan, NY 10023", "type": "bike-station", "grid-id": 589, "b-score": null, "coordinates": [-73.977935791, 40.773409009]}, {"id": 7188, "name": "E 81 St & Park Ave", "address": "E 81 St & Park Ave, Manhattan Community Board 8, NY 10028", "type": "bike-station", "grid-id": 953, "b-score": null, "coordinates": [-73.9590097, 40.77677702]}, {"id": 7976, "name": "Edgecombe Ave & W 145 St", "address": "Edgecombe Ave & W 145 St, nan, NY 10030", "type": "bike-station", "grid-id": 1235, "b-score": null, "coordinates": [-73.94385457, 40.823532462]}, {"id": 7910, "name": "Lenox Ave & W 144 St", "address": "Lenox Ave & W 144 St, nan, NY 10037", "type": "bike-station", "grid-id": 1375, "b-score": null, "coordinates": [-73.936494112, 40.819815636]}, {"id": 7619, "name": "W 107 St & Columbus Ave", "address": "W 107 St & Columbus Ave, Bloomingdale, NY 10025", "type": "bike-station", "grid-id": 900, "b-score": null, "coordinates": [-73.962161899, 40.799773574]}, {"id": 5687, "name": "MacDougal St & Prince St", "address": "MacDougal St & Prince St, SoHo, NY 10012", "type": "bike-station", "grid-id": 192, "b-score": null, "coordinates": [-74.002715468, 40.72743237]}, {"id": 5400, "name": "Harrison St & Hudson St", "address": "Harrison St & Hudson St, Manhattan Community Board 1, NY 10013", "type": "bike-station", "grid-id": 91, "b-score": null, "coordinates": [-74.0090009, 40.71870987]}, {"id": 5553, "name": "E 3 St & 1 Ave", "address": "E 3 St & 1 Ave, Manhattan Community Board 3, NY 10009", "type": "bike-station", "grid-id": 428, "b-score": null, "coordinates": [-73.98783413, 40.72467721]}, {"id": 6740, "name": "W 52 St & 6 Ave", "address": "W 52 St & 6 Ave, Theater District, NY -1", "type": "bike-station", "grid-id": 596, "b-score": null, "coordinates": [-73.97982001304626, 40.76132983124814]}, {"id": 6046, "name": "E 25 St & 2 Ave", "address": "E 25 St & 2 Ave, Manhattan Community Board 6, NY 10010", "type": "bike-station", "grid-id": 608, "b-score": null, "coordinates": [-73.97973776, 40.73912601]}, {"id": 5262, "name": "Madison St & Montgomery St", "address": "Madison St & Montgomery St, Manhattan Community Board 3, NY 10002", "type": "bike-station", "grid-id": 479, "b-score": null, "coordinates": [-73.984844, 40.713126]}, {"id": 6398, "name": "E 35 St & Madison Ave", "address": "E 35 St & Madison Ave, Manhattan Community Board 5, NY 10016", "type": "bike-station", "grid-id": 505, "b-score": null, "coordinates": [-73.982881427, 40.748360038]}, {"id": 6072, "name": "Gansevoort St & Hudson St", "address": "Gansevoort St & Hudson St, Manhattan Community Board 2, NY 10011", "type": "bike-station", "grid-id": 148, "b-score": null, "coordinates": [-74.00507032871246, 40.73944820130404]}, {"id": 6659, "name": "E 51 St & Lexington Ave", "address": "E 51 St & Lexington Ave, Midtown East, NY 10022", "type": "bike-station", "grid-id": 701, "b-score": null, "coordinates": [-73.97207836, 40.75714758]}, {"id": 5755, "name": "Washington Square E", "address": "Washington Square E, Greenwich Village, NY 10012", "type": "bike-station", "grid-id": 304, "b-score": null, "coordinates": [-73.995980263, 40.73027575]}, {"id": 5445, "name": "Stanton St & Norfolk St", "address": "Stanton St & Norfolk St, Lower East Side, NY 10002", "type": "bike-station", "grid-id": 475, "b-score": null, "coordinates": [-73.986274, 40.720747]}, {"id": 5359, "name": "Hudson St & Reade St", "address": "Hudson St & Reade St, Manhattan Community Board 1, NY 10014", "type": "bike-station", "grid-id": 92, "b-score": null, "coordinates": [-74.0091059, 40.71625008]}, {"id": 6022, "name": "E 16 St & 5 Ave", "address": "E 16 St & 5 Ave, Manhattan Community Board 5, NY 10003", "type": "bike-station", "grid-id": 339, "b-score": null, "coordinates": [-73.99238967, 40.73726186]}, {"id": 5374, "name": "Norfolk St & Broome St", "address": "Norfolk St & Broome St, Manhattan Community Board 3, NY 10002", "type": "bike-station", "grid-id": 433, "b-score": null, "coordinates": [-73.98802084, 40.7172274]}, {"id": 6364, "name": "6 Ave & W 34 St", "address": "6 Ave & W 34 St, Manhattan Community Board 5, NY 10019", "type": "bike-station", "grid-id": 414, "b-score": null, "coordinates": [-73.988051534, 40.749668837]}, {"id": 6230, "name": "FDR Drive & E 35 St", "address": "FDR Drive & E 35 St, Murray Hill, NY 10174", "type": "bike-station", "grid-id": 761, "b-score": null, "coordinates": [-73.97121214, 40.744219]}, {"id": 6107, "name": "W 17 St & 7 Ave", "address": "W 17 St & 7 Ave, Chelsea District, NY 10011", "type": "bike-station", "grid-id": 262, "b-score": null, "coordinates": [-73.99852573871613, 40.74056423633952]}, {"id": 5492, "name": "Cleveland Pl & Spring St", "address": "Cleveland Pl & Spring St, Manhattan Community Board 2, NY 10012", "type": "bike-station", "grid-id": 272, "b-score": null, "coordinates": [-73.997348189, 40.721975088]}, {"id": 5636, "name": "Great Jones St", "address": "Great Jones St, Manhattan Community Board 2, NY 10012", "type": "bike-station", "grid-id": 345, "b-score": null, "coordinates": [-73.99379025, 40.72743423]}, {"id": 5065, "name": "William St & Pine St", "address": "William St & Pine St, Manhattan Community Board 1, NY 10005", "type": "bike-station", "grid-id": 97, "b-score": null, "coordinates": [-74.00886333, 40.707755566]}, {"id": 5329, "name": "West St & Chambers St", "address": "West St & Chambers St, Manhattan Community Board 1, NY 10282", "type": "bike-station", "grid-id": 32, "b-score": null, "coordinates": [-74.01322069, 40.71754834]}, {"id": 6389, "name": "E 39 St & Lexington Ave", "address": "E 39 St & Lexington Ave, Manhattan Community Board 6, NY 10016", "type": "bike-station", "grid-id": 654, "b-score": null, "coordinates": [-73.97729203113158, 40.7494985460252]}, {"id": 5626, "name": "1 Ave & E 6 St", "address": "1 Ave & E 6 St, Manhattan Community Board 3, NY 10009", "type": "bike-station", "grid-id": 471, "b-score": null, "coordinates": [-73.98616880178452, 40.72633085971696]}, {"id": 5788, "name": "Lafayette St & E 8 St", "address": "Lafayette St & E 8 St, Manhattan Community Board 2, NY 10003", "type": "bike-station", "grid-id": 383, "b-score": null, "coordinates": [-73.99102628231049, 40.73020660529954]}, {"id": 5659, "name": "E 11 St & Avenue B", "address": "E 11 St & Avenue B, Alphabet City, NY 10009", "type": "bike-station", "grid-id": 615, "b-score": null, "coordinates": [-73.97950418293476, 40.72746420692392]}, {"id": 5539, "name": "Laight St & Hudson St", "address": "Laight St & Hudson St, Manhattan Community Board 1, NY 10013", "type": "bike-station", "grid-id": 123, "b-score": null, "coordinates": [-74.00771779, 40.72185379]}, {"id": 5997, "name": "W 12 St & Hudson St", "address": "W 12 St & Hudson St, Manhattan Community Board 2, NY 10014", "type": "bike-station", "grid-id": 149, "b-score": null, "coordinates": [-74.00558933615685, 40.73752993301071]}, {"id": 6608, "name": "E 54 St & 1 Ave", "address": "E 54 St & 1 Ave, Manhattan Community Board 6, NY 10022", "type": "bike-station", "grid-id": 884, "b-score": null, "coordinates": [-73.964179, 40.756265]}, {"id": 5359, "name": "Duane St & Hudson St", "address": "Duane St & Hudson St, Manhattan Community Board 1, NY 10013", "type": "bike-station", "grid-id": 92, "b-score": null, "coordinates": [-74.00925, 40.71703]}, {"id": 5303, "name": "Canal St & Rutgers St", "address": "Canal St & Rutgers St, Manhattan Community Board 3, NY 10002", "type": "bike-station", "grid-id": 392, "b-score": null, "coordinates": [-73.98990025, 40.71427487]}, {"id": 6247, "name": "W 27 St & 7 Ave", "address": "W 27 St & 7 Ave, Chelsea, NY 10001", "type": "bike-station", "grid-id": 295, "b-score": null, "coordinates": [-73.994243145, 40.746415734]}, {"id": 5721, "name": "LaGuardia Pl & W 3 St", "address": "LaGuardia Pl & W 3 St, Greenwich Village, NY 10012", "type": "bike-station", "grid-id": 268, "b-score": null, "coordinates": [-73.99810231, 40.72917025]}, {"id": 5303, "name": "Clinton St & Grand St", "address": "Clinton St & Grand St, Manhattan Community Board 3, NY 10002", "type": "bike-station", "grid-id": 392, "b-score": null, "coordinates": [-73.9870295, 40.71559509]}, {"id": 5863, "name": "E 15 St & 3 Ave", "address": "E 15 St & 3 Ave, Manhattan Community Board 6, NY 10003", "type": "bike-station", "grid-id": 467, "b-score": null, "coordinates": [-73.986923, 40.734232]}, {"id": 6795, "name": "W 46 St & 11 Ave", "address": "W 46 St & 11 Ave, Manhattan Community Board 4, NY 10036", "type": "bike-station", "grid-id": 249, "b-score": null, "coordinates": [-73.996709943, 40.763470292]}, {"id": 5279, "name": "Centre St & Worth St", "address": "Centre St & Worth St, Manhattan Community Board 1, NY 10013", "type": "bike-station", "grid-id": 199, "b-score": null, "coordinates": [-74.00234482, 40.71494807]}, {"id": 4993, "name": "Water St & Gouverneur Ln", "address": "Water St & Gouverneur Ln, Financial District, NY 10004", "type": "bike-station", "grid-id": 132, "b-score": null, "coordinates": [-74.007854223, 40.70489192]}, {"id": 5721, "name": "Sullivan St & Washington Sq", "address": "Sullivan St & Washington Sq, Greenwich Village, NY 10012", "type": "bike-station", "grid-id": 268, "b-score": null, "coordinates": [-73.99906065, 40.73047747]}, {"id": 6611, "name": "W 37 St & 10 Ave", "address": "W 37 St & 10 Ave, Manhattan Community Board 4, NY 10018", "type": "bike-station", "grid-id": 253, "b-score": null, "coordinates": [-73.998218775, 40.75663197]}, {"id": 7886, "name": "12 Ave & W 125 St", "address": "12 Ave & W 125 St, Manhattanville, NY 10115", "type": "bike-station", "grid-id": 930, "b-score": null, "coordinates": [-73.960405, 40.818299]}, {"id": 5755, "name": "University Pl & E 8 St", "address": "University Pl & E 8 St, Greenwich Village, NY 10012", "type": "bike-station", "grid-id": 304, "b-score": null, "coordinates": [-73.995121717, 40.731090784]}, {"id": 6896, "name": "E 68 St & 3 Ave", "address": "E 68 St & 3 Ave, Manhattan Community Board 8, NY 10021", "type": "bike-station", "grid-id": 918, "b-score": null, "coordinates": [-73.962182522, 40.767019749]}, {"id": 6131, "name": "E 27 St & Park Ave S", "address": "E 27 St & Park Ave S, Manhattan Community Board 5, NY 10010", "type": "bike-station", "grid-id": 508, "b-score": null, "coordinates": [-73.9847157150507, 40.74275179648995]}, {"id": 6072, "name": "Greenwich Ave & 8 Ave", "address": "Greenwich Ave & 8 Ave, Manhattan Community Board 2, NY 10014", "type": "bike-station", "grid-id": 148, "b-score": null, "coordinates": [-74.0026376103, 40.7390169121]}, {"id": 5270, "name": "Forsyth St & Canal St", "address": "Forsyth St & Canal St, Manhattan Community Board 3, NY 10002", "type": "bike-station", "grid-id": 276, "b-score": null, "coordinates": [-73.99422366, 40.7158155]}, {"id": 5422, "name": "Howard St & Lafayette St", "address": "Howard St & Lafayette St, Manhattan Community Board 2, NY 10013", "type": "bike-station", "grid-id": 234, "b-score": null, "coordinates": [-73.99973337, 40.71910537]}, {"id": 5515, "name": "E 2 St & Avenue B", "address": "E 2 St & Avenue B, East Village, NY 10009", "type": "bike-station", "grid-id": 520, "b-score": null, "coordinates": [-73.98368779, 40.72217444]}, {"id": 5545, "name": "E 7 St & Ave C", "address": "E 7 St & Ave C, Alphabet City, NY 10009", "type": "bike-station", "grid-id": 617, "b-score": null, "coordinates": [-73.97901266813278, 40.72412944090093]}, {"id": 6644, "name": "9 Ave & W 39 St", "address": "9 Ave & W 39 St, Manhattan Community Board 4, NY 10018", "type": "bike-station", "grid-id": 329, "b-score": null, "coordinates": [-73.99410143494606, 40.756403523272496]}, {"id": 5561, "name": "Lafayette St & Jersey St", "address": "Lafayette St & Jersey St, Manhattan Community Board 2, NY 10012", "type": "bike-station", "grid-id": 307, "b-score": null, "coordinates": [-73.99565293, 40.72456089]}, {"id": 5545, "name": "E 5 St & Avenue C", "address": "E 5 St & Avenue C, East Village, NY 10009", "type": "bike-station", "grid-id": 617, "b-score": null, "coordinates": [-73.980280995, 40.723059773]}, {"id": 6676, "name": "W 45 St & 8 Ave", "address": "W 45 St & 8 Ave, Manhattan Community Board 4, NY 10036", "type": "bike-station", "grid-id": 409, "b-score": null, "coordinates": [-73.988634229, 40.75944972]}, {"id": 6233, "name": "W 16 St & The High Line", "address": "W 16 St & The High Line, Chelsea District, NY 10011", "type": "bike-station", "grid-id": 111, "b-score": null, "coordinates": [-74.00681753, 40.74334935]}, {"id": 6560, "name": "Broadway & W 38 St", "address": "Broadway & W 38 St, Garment District, NY 10018", "type": "bike-station", "grid-id": 413, "b-score": null, "coordinates": [-73.98734897375107, 40.7529728216068]}, {"id": 6224, "name": "W 22 St & 8 Ave", "address": "W 22 St & 8 Ave, Chelsea District, NY 10011", "type": "bike-station", "grid-id": 259, "b-score": null, "coordinates": [-73.999189377, 40.74474895]}, {"id": 5788, "name": "E 11 St & 3 Ave", "address": "E 11 St & 3 Ave, Manhattan Community Board 3, NY 10003", "type": "bike-station", "grid-id": 383, "b-score": null, "coordinates": [-73.98849, 40.73127]}, {"id": 6197, "name": "2 Ave & E 31 St", "address": "2 Ave & E 31 St, Manhattan Community Board 6, NY 10016", "type": "bike-station", "grid-id": 657, "b-score": null, "coordinates": [-73.97706058, 40.74290902]}, {"id": 5626, "name": "E 7 St & Avenue A", "address": "E 7 St & Avenue A, Manhattan Community Board 3, NY 10009", "type": "bike-station", "grid-id": 471, "b-score": null, "coordinates": [-73.98379855, 40.72621788]}, {"id": 6450, "name": "8 Ave & W 31 St", "address": "8 Ave & W 31 St, Chelsea District, NY 10119", "type": "bike-station", "grid-id": 293, "b-score": null, "coordinates": [-73.9946848154068, 40.7505853470215]}, {"id": 6148, "name": "W 17 St & 8 Ave", "address": "W 17 St & 8 Ave, Chelsea District, NY 10011", "type": "bike-station", "grid-id": 184, "b-score": null, "coordinates": [-74.00149746, 40.74177603]}, {"id": 5096, "name": "Peck Slip & South St", "address": "Peck Slip & South St, Manhattan Community Board 1, NY 10038", "type": "bike-station", "grid-id": 241, "b-score": null, "coordinates": [-74.00108054280281, 40.7075188830923]}, {"id": 5914, "name": "W 11 St & 6 Ave", "address": "W 11 St & 6 Ave, Washington Square Village, NY 10014", "type": "bike-station", "grid-id": 264, "b-score": null, "coordinates": [-73.99800419, 40.73532427]}, {"id": 6280, "name": "E 32 St & Park Ave", "address": "E 32 St & Park Ave, Manhattan Community Board 5, NY 10016", "type": "bike-station", "grid-id": 555, "b-score": null, "coordinates": [-73.98214066, 40.745573997]}, {"id": 8453, "name": "W 190 St & St. Nicholas Ave", "address": "W 190 St & St. Nicholas Ave, Manhattan Community Board 12, NY 10040", "type": "bike-station", "grid-id": 1478, "b-score": null, "coordinates": [-73.929437757, 40.854761839]}, {"id": 6890, "name": "W 53 St & 10 Ave", "address": "W 53 St & 10 Ave, Manhattan Community Board 4, NY 10019", "type": "bike-station", "grid-id": 363, "b-score": null, "coordinates": [-73.99061728, 40.76669671]}, {"id": 7116, "name": "W 67 St & Broadway", "address": "W 67 St & Broadway, nan, NY 10023", "type": "bike-station", "grid-id": 490, "b-score": null, "coordinates": [-73.982650876, 40.774982214]}, {"id": 6926, "name": "W 52 St & 11 Ave", "address": "W 52 St & 11 Ave, Manhattan Community Board 4, NY 10019", "type": "bike-station", "grid-id": 284, "b-score": null, "coordinates": [-73.994384408, 40.767436028]}, {"id": 5644, "name": "W Broadway & W Houston St", "address": "W Broadway & W Houston St, Manhattan Community Board 2, NY 10012", "type": "bike-station", "grid-id": 230, "b-score": null, "coordinates": [-74.000604749, 40.726258516]}, {"id": 5805, "name": "7 Ave S & Bleecker St", "address": "7 Ave S & Bleecker St, Manhattan Community Board 2, NY 10014", "type": "bike-station", "grid-id": 189, "b-score": null, "coordinates": [-74.00363802909851, 40.73213896287381]}, {"id": 5216, "name": "Barclay St & Church St", "address": "Barclay St & Church St, Manhattan Community Board 1, NY 10007", "type": "bike-station", "grid-id": 94, "b-score": null, "coordinates": [-74.01020234, 40.71291224]}, {"id": 5610, "name": "6 Ave & Broome St", "address": "6 Ave & Broome St, Manhattan Community Board 2, NY 10005", "type": "bike-station", "grid-id": 157, "b-score": null, "coordinates": [-74.004585862, 40.724426389]}, {"id": 7146, "name": "E 85 St & York Ave", "address": "E 85 St & York Ave, Manhattan Community Board 8, NY 10028", "type": "bike-station", "grid-id": 1167, "b-score": null, "coordinates": [-73.94803392, 40.77536905]}, {"id": 7640, "name": "E 118 St & Madison Ave", "address": "E 118 St & Madison Ave, East Harlem, NY 10035", "type": "bike-station", "grid-id": 1248, "b-score": null, "coordinates": [-73.9442507, 40.8014866]}, {"id": 5159, "name": "Pike St & Monroe St", "address": "Pike St & Monroe St, Manhattan Community Board 3, NY 10002", "type": "bike-station", "grid-id": 354, "b-score": null, "coordinates": [-73.99193043, 40.71173107]}, {"id": 7212, "name": "E 85 St & 3 Ave", "address": "E 85 St & 3 Ave, Manhattan Community Board 8, NY 10028", "type": "bike-station", "grid-id": 1034, "b-score": null, "coordinates": [-73.954043508, 40.777924776]}, {"id": 6691, "name": "E 56 St & 3 Ave", "address": "E 56 St & 3 Ave, Manhattan Community Board 6, NY 10022", "type": "bike-station", "grid-id": 842, "b-score": null, "coordinates": [-73.96759673, 40.75934501]}, {"id": 6762, "name": "E 58 St & 3 Ave", "address": "E 58 St & 3 Ave, Manhattan Community Board 6, NY 10022", "type": "bike-station", "grid-id": 880, "b-score": null, "coordinates": [-73.96724467, 40.76095756]}, {"id": 6432, "name": "E 41 St & Madison Ave (SE corner)", "address": "E 41 St & Madison Ave (SE corner), Manhattan Community Board 5, NY 10017", "type": "bike-station", "grid-id": 602, "b-score": null, "coordinates": [-73.979635, 40.752049]}, {"id": 7436, "name": "2 Ave & E 104 St", "address": "2 Ave & E 104 St, Manhattan Community Board 11, NY 10035", "type": "bike-station", "grid-id": 1255, "b-score": null, "coordinates": [-73.943811417, 40.788998008]}, {"id": 6164, "name": "Lexington Ave & E 29 St", "address": "Lexington Ave & E 29 St, Manhattan Community Board 5, NY 10035", "type": "bike-station", "grid-id": 556, "b-score": null, "coordinates": [-73.98215353488922, 40.74311555376486]}, {"id": 6441, "name": "Broadway & W 37 St", "address": "Broadway & W 37 St, Garment District, NY 10120", "type": "bike-station", "grid-id": 413, "b-score": null, "coordinates": [-73.987777948, 40.751736283]}, {"id": 7183, "name": "Riverside Blvd & W 67 St", "address": "Riverside Blvd & W 67 St, nan, NY 10069", "type": "bike-station", "grid-id": 399, "b-score": null, "coordinates": [-73.98888587951659, 40.777507027547976]}, {"id": 5329, "name": "Murray St & West St", "address": "Murray St & West St, Manhattan Community Board 1, NY 10007", "type": "bike-station", "grid-id": 32, "b-score": null, "coordinates": [-74.012443423, 40.714960456]}, {"id": 5854, "name": "1 Ave & E 18 St", "address": "1 Ave & E 18 St, Manhattan Community Board 6, NY 10010", "type": "bike-station", "grid-id": 561, "b-score": null, "coordinates": [-73.98054420948029, 40.73381219196632]}, {"id": 7354, "name": "Central Park West & W 85 St", "address": "Central Park West & W 85 St, Manhattan Community Board 7, NY 10024", "type": "bike-station", "grid-id": 789, "b-score": null, "coordinates": [-73.969862, 40.78476]}, {"id": 7311, "name": "Amsterdam Ave & W 79 St", "address": "Amsterdam Ave & W 79 St, Manhattan Community Board 7, NY 10024", "type": "bike-station", "grid-id": 584, "b-score": null, "coordinates": [-73.978810906, 40.782833099]}, {"id": 4962, "name": "Broad St & Bridge St", "address": "Broad St & Bridge St, Financial District, NY 10004", "type": "bike-station", "grid-id": 68, "b-score": null, "coordinates": [-74.01167797, 40.70365182]}, {"id": 7253, "name": "Central Park West & W 76 St", "address": "Central Park West & W 76 St, Manhattan Community Board 7, NY 10024", "type": "bike-station", "grid-id": 689, "b-score": null, "coordinates": [-73.973785281, 40.778997302]}, {"id": 7738, "name": "Adam Clayton Powell Blvd & W 126 St", "address": "Adam Clayton Powell Blvd & W 126 St, Manhattan Community Board 10, NY 10039", "type": "bike-station", "grid-id": 1148, "b-score": null, "coordinates": [-73.94776493310928, 40.80949534777948]}, {"id": 7450, "name": "Pleasant Ave & E 116 St", "address": "Pleasant Ave & E 116 St, East Harlem, NY 10035", "type": "bike-station", "grid-id": 1434, "b-score": null, "coordinates": [-73.9333349, 40.7949879]}, {"id": 5779, "name": "Ave A & E 14 St", "address": "Ave A & E 14 St, Alphabet City, NY 10009", "type": "bike-station", "grid-id": 515, "b-score": null, "coordinates": [-73.980617881, 40.730036259]}, {"id": 7161, "name": "5 Ave & E 78 St", "address": "5 Ave & E 78 St, Manhattan Community Board 8, NY 10075", "type": "bike-station", "grid-id": 873, "b-score": null, "coordinates": [-73.96427392959595, 40.77632142182271]}, {"id": 6441, "name": "W 37 St & Broadway", "address": "W 37 St & Broadway, Garment District, NY 10018", "type": "bike-station", "grid-id": 413, "b-score": null, "coordinates": [-73.988040447, 40.752444625]}, {"id": 6441, "name": "Broadway & W 36 St", "address": "Broadway & W 36 St, Garment District, NY 10120", "type": "bike-station", "grid-id": 413, "b-score": null, "coordinates": [-73.98765428, 40.75097711]}, {"id": 5500, "name": "Grand St & Greene St", "address": "Grand St & Greene St, Manhattan Community Board 2, NY 10013", "type": "bike-station", "grid-id": 195, "b-score": null, "coordinates": [-74.002283931, 40.721768975]}, {"id": 6753, "name": "1 Ave & E 62 St", "address": "1 Ave & E 62 St, Manhattan Community Board 8, NY 10065", "type": "bike-station", "grid-id": 962, "b-score": null, "coordinates": [-73.96094022, 40.7612274]}, {"id": 7524, "name": "Riverside Dr & W 91 St", "address": "Riverside Dr & W 91 St, nan, NY 10024", "type": "bike-station", "grid-id": 629, "b-score": null, "coordinates": [-73.977034569, 40.793170929]}, {"id": 6756, "name": "W 44 St & 11 Ave", "address": "W 44 St & 11 Ave, Manhattan Community Board 4, NY 10036", "type": "bike-station", "grid-id": 250, "b-score": null, "coordinates": [-73.996975, 40.762009]}, {"id": 5065, "name": "John St & William St", "address": "John St & William St, Manhattan Community Board 1, NY 10038", "type": "bike-station", "grid-id": 97, "b-score": null, "coordinates": [-74.00722156, 40.70862144]}, {"id": 7020, "name": "E 77 St & 1 Ave", "address": "E 77 St & 1 Ave, Manhattan Community Board 8, NY 10021", "type": "bike-station", "grid-id": 1080, "b-score": null, "coordinates": [-73.953271627, 40.770829916]}, {"id": 8157, "name": "Broadway & W 160 St", "address": "Broadway & W 160 St, Manhattan Community Board 12, NY 10032", "type": "bike-station", "grid-id": 1229, "b-score": null, "coordinates": [-73.943573356, 40.835562348]}, {"id": 5342, "name": "Allen St & Hester St", "address": "Allen St & Hester St, Manhattan Community Board 3, NY 10002", "type": "bike-station", "grid-id": 351, "b-score": null, "coordinates": [-73.99190759, 40.71605866]}, {"id": 5872, "name": "E 9 St & 5 Ave", "address": "E 9 St & 5 Ave, Washington Square Village, NY 10003", "type": "bike-station", "grid-id": 303, "b-score": null, "coordinates": [-73.99581670761108, 40.73275887045087]}, {"id": 5929, "name": "E 23 St & 1 Ave", "address": "E 23 St & 1 Ave, Stuy Town, NY 10010", "type": "bike-station", "grid-id": 610, "b-score": null, "coordinates": [-73.97809472, 40.736502]}, {"id": 7611, "name": "E 118 St & 3 Ave", "address": "E 118 St & 3 Ave, East Harlem, NY 10035", "type": "bike-station", "grid-id": 1341, "b-score": null, "coordinates": [-73.938731194, 40.799211621]}, {"id": 7432, "name": "W 89 St & Columbus Ave", "address": "W 89 St & Columbus Ave, Manhattan Community Board 7, NY 10024", "type": "bike-station", "grid-id": 787, "b-score": null, "coordinates": [-73.970355988, 40.788204074]}, {"id": 5896, "name": "E 17 St & 2 Ave", "address": "E 17 St & 2 Ave, Manhattan Community Board 6, NY 10003", "type": "bike-station", "grid-id": 513, "b-score": null, "coordinates": [-73.98372530937195, 40.73431166276575]}, {"id": 6459, "name": "10 Ave & W 28 St", "address": "10 Ave & W 28 St, Chelsea, NY 10001", "type": "bike-station", "grid-id": 179, "b-score": null, "coordinates": [-74.00176802, 40.75066386]}, {"id": 6779, "name": "Broadway & W 51 St", "address": "Broadway & W 51 St, Manhattan Community Board 5, NY 10019", "type": "bike-station", "grid-id": 497, "b-score": null, "coordinates": [-73.98336183, 40.76228826]}, {"id": 6659, "name": "Madison Av & E 51 St", "address": "Madison Av & E 51 St, Manhattan Community Board 5, NY 10022", "type": "bike-station", "grid-id": 701, "b-score": null, "coordinates": [-73.97513, 40.75863]}, {"id": 7959, "name": "Hamilton Pl & W 140 St", "address": "Hamilton Pl & W 140 St, Manhattan Community Board 9, NY 10031", "type": "bike-station", "grid-id": 1094, "b-score": null, "coordinates": [-73.951301813, 40.822822571]}, {"id": 5294, "name": "Henry St & Grand St", "address": "Henry St & Grand St, Lower East Side, NY 10002", "type": "bike-station", "grid-id": 572, "b-score": null, "coordinates": [-73.981095, 40.714211]}, {"id": 6920, "name": "W 54 St & 9 Ave", "address": "W 54 St & 9 Ave, Manhattan Community Board 4, NY 10019", "type": "bike-station", "grid-id": 450, "b-score": null, "coordinates": [-73.98690506, 40.76584941]}, {"id": 7128, "name": "E 76 St & Park Ave", "address": "E 76 St & Park Ave, nan, NY 10021", "type": "bike-station", "grid-id": 914, "b-score": null, "coordinates": [-73.96216023, 40.773818254]}, {"id": 5368, "name": "River Ter & Warren St", "address": "River Ter & Warren St, Manhattan Community Board 1, NY 10282", "type": "bike-station", "grid-id": 12, "b-score": null, "coordinates": [-74.015946746, 40.717640519]}, {"id": 6459, "name": "W 30 St & 10 Ave", "address": "W 30 St & 10 Ave, Manhattan Community Board 4, NY 10019", "type": "bike-station", "grid-id": 179, "b-score": null, "coordinates": [-74.002353, 40.752694]}, {"id": 5763, "name": "Carmine St & 6 Ave", "address": "Carmine St & 6 Ave, West Village, NY 10014", "type": "bike-station", "grid-id": 190, "b-score": null, "coordinates": [-74.002327681, 40.730411053]}, {"id": 6131, "name": "Madison Ave & E 26 St", "address": "Madison Ave & E 26 St, Manhattan Community Board 5, NY 10037", "type": "bike-station", "grid-id": 508, "b-score": null, "coordinates": [-73.98671329021454, 40.742684734875695]}, {"id": 5938, "name": "E 16 St & Irving Pl", "address": "E 16 St & Irving Pl, Manhattan Community Board 5, NY 10003", "type": "bike-station", "grid-id": 422, "b-score": null, "coordinates": [-73.98797392845154, 40.735367055605394]}, {"id": 6765, "name": "12 Ave & W 40 St", "address": "12 Ave & W 40 St, Hudson Yards, NY 10199", "type": "bike-station", "grid-id": 173, "b-score": null, "coordinates": [-74.002838135, 40.760924816]}, {"id": 5470, "name": "North Moore St & Greenwich St", "address": "North Moore St & Greenwich St, Manhattan Community Board 1, NY 10013", "type": "bike-station", "grid-id": 90, "b-score": null, "coordinates": [-74.0103006362915, 40.72019521437465]}, {"id": 5137, "name": "Spruce St & Nassau St", "address": "Spruce St & Nassau St, Manhattan Community Board 1, NY 10038", "type": "bike-station", "grid-id": 164, "b-score": null, "coordinates": [-74.00552427, 40.71146364]}, {"id": 5626, "name": "St Marks Pl & 1 Ave", "address": "St Marks Pl & 1 Ave, Manhattan Community Board 3, NY 10003", "type": "bike-station", "grid-id": 471, "b-score": null, "coordinates": [-73.98564945, 40.72779126]}, {"id": 5616, "name": "E 12 St & Ave C", "address": "E 12 St & Ave C, Alphabet City, NY 10009", "type": "bike-station", "grid-id": 616, "b-score": null, "coordinates": [-73.976831, 40.727243]}, {"id": 6140, "name": "W 21 St & 6 Ave", "address": "W 21 St & 6 Ave, Chelsea District, NY 10011", "type": "bike-station", "grid-id": 337, "b-score": null, "coordinates": [-73.99401021, 40.741737247]}, {"id": 5755, "name": "Washington Pl & Broadway", "address": "Washington Pl & Broadway, Greenwich Village, NY 10012", "type": "bike-station", "grid-id": 304, "b-score": null, "coordinates": [-73.99404649, 40.72903917]}, {"id": 5730, "name": "Greenwich St & W Houston St", "address": "Greenwich St & W Houston St, Manhattan Community Board 2, NY 10014", "type": "bike-station", "grid-id": 85, "b-score": null, "coordinates": [-74.008742809, 40.728591561]}, {"id": 6064, "name": "W 18 St & 6 Ave", "address": "W 18 St & 6 Ave, Manhattan Community Board 5, NY 10011", "type": "bike-station", "grid-id": 299, "b-score": null, "coordinates": [-73.99456405, 40.73971301]}, {"id": 5593, "name": "E 4 St & 2 Ave", "address": "E 4 St & 2 Ave, East Village, NY 10009", "type": "bike-station", "grid-id": 385, "b-score": null, "coordinates": [-73.98978041, 40.7262807]}, {"id": 5001, "name": "Little West St & 1 Pl", "address": "Little West St & 1 Pl, Battery Park City, NY 10280", "type": "bike-station", "grid-id": 19, "b-score": null, "coordinates": [-74.01677685, 40.70569254]}, {"id": 6190, "name": "9 Ave & W 18 St", "address": "9 Ave & W 18 St, Chelsea District, NY 10019", "type": "bike-station", "grid-id": 183, "b-score": null, "coordinates": [-74.00366443, 40.74317449]}, {"id": 5430, "name": "Franklin St & W Broadway", "address": "Franklin St & W Broadway, Manhattan Community Board 1, NY 10005", "type": "bike-station", "grid-id": 124, "b-score": null, "coordinates": [-74.00666661, 40.71911552]}, {"id": 6115, "name": "Hudson St & W 13 St", "address": "Hudson St & W 13 St, Manhattan Community Board 2, NY 10014", "type": "bike-station", "grid-id": 111, "b-score": null, "coordinates": [-74.005217552, 40.740307212]}, {"id": 5382, "name": "Grand St & Elizabeth St", "address": "Grand St & Elizabeth St, Manhattan Community Board 2, NY 10013", "type": "bike-station", "grid-id": 311, "b-score": null, "coordinates": [-73.99596, 40.718822]}, {"id": 6756, "name": "W 43 St & 10 Ave", "address": "W 43 St & 10 Ave, Manhattan Community Board 4, NY 10036", "type": "bike-station", "grid-id": 250, "b-score": null, "coordinates": [-73.99400878, 40.759878516]}, {"id": 5445, "name": "Suffolk St & Stanton St", "address": "Suffolk St & Stanton St, Manhattan Community Board 3, NY 10002", "type": "bike-station", "grid-id": 475, "b-score": null, "coordinates": [-73.98517977, 40.72066442]}, {"id": 6055, "name": "E 20 St & Park Ave", "address": "E 20 St & Park Ave, Manhattan Community Board 5, NY 10003", "type": "bike-station", "grid-id": 421, "b-score": null, "coordinates": [-73.98751968, 40.73827428]}, {"id": 5626, "name": "E 5 St & Ave A", "address": "E 5 St & Ave A, Alphabet City, NY 10009", "type": "bike-station", "grid-id": 471, "b-score": null, "coordinates": [-73.98430064320564, 40.72479007746337]}, {"id": 6364, "name": "6 Ave & W 33 St", "address": "6 Ave & W 33 St, Herald Square, NY 10019", "type": "bike-station", "grid-id": 414, "b-score": null, "coordinates": [-73.98848395, 40.74901271]}, {"id": 7049, "name": "E 82 St & East End Ave", "address": "E 82 St & East End Ave, Manhattan Community Board 8, NY 10028", "type": "bike-station", "grid-id": 1169, "b-score": null, "coordinates": [-73.94712472, 40.772443771]}, {"id": 5216, "name": "Vesey St & Church St", "address": "Vesey St & Church St, Manhattan Community Board 1, NY 10281", "type": "bike-station", "grid-id": 94, "b-score": null, "coordinates": [-74.01047229766846, 40.71221958009051]}, {"id": 6526, "name": "W 35 St & 8 Ave", "address": "W 35 St & 8 Ave, Manhattan Community Board 5, NY 10001", "type": "bike-station", "grid-id": 331, "b-score": null, "coordinates": [-73.99280458705107, 40.752762088742045]}, {"id": 7602, "name": "Lenox Ave & W 111 St", "address": "Lenox Ave & W 111 St, Manhattan Community Board 10, NY 10037", "type": "bike-station", "grid-id": 1064, "b-score": null, "coordinates": [-73.9523, 40.7987859]}, {"id": 7407, "name": "E 102 St & 1 Ave", "address": "E 102 St & 1 Ave, Manhattan Community Board 11, NY 10029", "type": "bike-station", "grid-id": 1304, "b-score": null, "coordinates": [-73.94164802, 40.7869946]}, {"id": 7456, "name": "E 106 St & 1 Ave", "address": "E 106 St & 1 Ave, Manhattan Community Board 11, NY 10029", "type": "bike-station", "grid-id": 1347, "b-score": null, "coordinates": [-73.93956237, 40.7892529]}, {"id": 7243, "name": "E 84 St & Park Ave", "address": "E 84 St & Park Ave, Manhattan Community Board 8, NY 10028", "type": "bike-station", "grid-id": 993, "b-score": null, "coordinates": [-73.957896709, 40.778739572]}, {"id": 8616, "name": "Riverside Dr & Broadway", "address": "Riverside Dr & Broadway, Manhattan Community Board 12, NY 10463", "type": "bike-station", "grid-id": 1472, "b-score": null, "coordinates": [-73.927940965, 40.865405917]}, {"id": 6578, "name": "W 34 St & 11 Ave", "address": "W 34 St & 11 Ave, Hudson Yards, NY 10199", "type": "bike-station", "grid-id": 176, "b-score": null, "coordinates": [-74.0021163, 40.75594159]}, {"id": 7538, "name": "W 100 St & Manhattan Ave", "address": "W 100 St & Manhattan Ave, Bloomingdale, NY 10025", "type": "bike-station", "grid-id": 862, "b-score": null, "coordinates": [-73.9645, 40.795]}, {"id": 7741, "name": "Morningside Dr & Amsterdam Ave", "address": "Morningside Dr & Amsterdam Ave, Manhattan Community Board 9, NY 10027", "type": "bike-station", "grid-id": 976, "b-score": null, "coordinates": [-73.95736455917358, 40.81028506306003]}, {"id": 6904, "name": "5 Ave & E 63 St", "address": "5 Ave & E 63 St, Manhattan Community Board 8, NY 10035", "type": "bike-station", "grid-id": 748, "b-score": null, "coordinates": [-73.971518, 40.766368]}, {"id": 5175, "name": "Fulton St & Broadway", "address": "Fulton St & Broadway, Manhattan Community Board 1, NY 10038", "type": "bike-station", "grid-id": 95, "b-score": null, "coordinates": [-74.009447, 40.711066]}, {"id": 5922, "name": "Perry St & Bleecker St", "address": "Perry St & Bleecker St, Manhattan Community Board 2, NY 10014", "type": "bike-station", "grid-id": 150, "b-score": null, "coordinates": [-74.00483091, 40.73535398]}, {"id": 5382, "name": "Forsyth St & Grand St", "address": "Forsyth St & Grand St, Manhattan Community Board 3, NY 10002", "type": "bike-station", "grid-id": 311, "b-score": null, "coordinates": [-73.99316132068634, 40.71779817737835]}, {"id": 6847, "name": "7 Ave & W 55 St", "address": "7 Ave & W 55 St, Manhattan Community Board 5, NY 10019", "type": "bike-station", "grid-id": 544, "b-score": null, "coordinates": [-73.980973, 40.764126]}, {"id": 7365, "name": "E 97 St & 3 Ave", "address": "E 97 St & 3 Ave, Manhattan Community Board 11, NY 10029", "type": "bike-station", "grid-id": 1161, "b-score": null, "coordinates": [-73.948521852, 40.785922885]}, {"id": 7622, "name": "2 Ave & E 122 St", "address": "2 Ave & E 122 St, East Harlem, NY 10035", "type": "bike-station", "grid-id": 1385, "b-score": null, "coordinates": [-73.93500185, 40.800554633]}, {"id": 6257, "name": "W 24 St & 7 Ave", "address": "W 24 St & 7 Ave, Chelsea District, NY 10011", "type": "bike-station", "grid-id": 296, "b-score": null, "coordinates": [-73.995688438, 40.744868636]}, {"id": 7443, "name": "Madison Ave & E 99 St", "address": "Madison Ave & E 99 St, Manhattan Community Board 11, NY 10037", "type": "bike-station", "grid-id": 1069, "b-score": null, "coordinates": [-73.95242929458618, 40.78948541553215]}, {"id": 7650, "name": "West End Ave & W 107 St", "address": "West End Ave & W 107 St, Bloomingdale, NY 10025", "type": "bike-station", "grid-id": 779, "b-score": null, "coordinates": [-73.9681805305, 40.8021174]}, {"id": 5569, "name": "W Broadway & Spring St", "address": "W Broadway & Spring St, Manhattan Community Board 2, NY 10012", "type": "bike-station", "grid-id": 193, "b-score": null, "coordinates": [-74.00165855884552, 40.72494672359416]}, {"id": 5198, "name": "Market St & Cherry St", "address": "Market St & Cherry St, Manhattan Community Board 3, NY 10002", "type": "bike-station", "grid-id": 354, "b-score": null, "coordinates": [-73.99400398, 40.71076228]}, {"id": 8650, "name": "Seaman Ave & Beak St", "address": "Seaman Ave & Beak St, Manhattan Community Board 12, NY 10034", "type": "bike-station", "grid-id": 1498, "b-score": null, "coordinates": [-73.926193714, 40.867679238]}, {"id": 5190, "name": "Clinton St & Cherry St", "address": "Clinton St & Cherry St, Two Bridges, NY 10002", "type": "bike-station", "grid-id": 480, "b-score": null, "coordinates": [-73.98672603070736, 40.711471394469264]}, {"id": 6331, "name": "W 31 St & 7 Ave", "address": "W 31 St & 7 Ave, Chelsea District, NY 10001", "type": "bike-station", "grid-id": 373, "b-score": null, "coordinates": [-73.9916, 40.749156]}, {"id": 8532, "name": "Margaret Corbin Plz & Ft Washington Ave", "address": "Margaret Corbin Plz & Ft Washington Ave, Fort George, NY 10040", "type": "bike-station", "grid-id": 1399, "b-score": null, "coordinates": [-73.933845282, 40.859385729]}, {"id": 7610, "name": "W 104 St & Amsterdam Ave", "address": "W 104 St & Amsterdam Ave, Bloomingdale, NY 10025", "type": "bike-station", "grid-id": 820, "b-score": null, "coordinates": [-73.96649479866028, 40.79904139288298]}, {"id": 5500, "name": "6 Ave & Canal St", "address": "6 Ave & Canal St, Manhattan Community Board 2, NY 10005", "type": "bike-station", "grid-id": 195, "b-score": null, "coordinates": [-74.00566443, 40.72243797]}, {"id": 5105, "name": "Liberty St & Broadway", "address": "Liberty St & Broadway, Manhattan Community Board 1, NY 10005", "type": "bike-station", "grid-id": 96, "b-score": null, "coordinates": [-74.01043382, 40.70905623]}, {"id": 5712, "name": "Cooper Square & Astor Pl", "address": "Cooper Square & Astor Pl, East Village, NY -1", "type": "bike-station", "grid-id": 385, "b-score": null, "coordinates": [-73.990735769, 40.729598165]}, {"id": 7207, "name": "W 70 St & Amsterdam Ave", "address": "W 70 St & Amsterdam Ave, nan, NY 10023", "type": "bike-station", "grid-id": 489, "b-score": null, "coordinates": [-73.982944608, 40.777315974]}, {"id": 4846, "name": "South St & Whitehall St", "address": "South St & Whitehall St, Financial District, NY 10004", "type": "bike-station", "grid-id": 69, "b-score": null, "coordinates": [-74.01234218, 40.70122128]}, {"id": 8262, "name": "W 171 St & St. Nicholas Ave", "address": "W 171 St & St. Nicholas Ave, Manhattan Community Board 12, NY 10032", "type": "bike-station", "grid-id": 1317, "b-score": null, "coordinates": [-73.938762188, 40.843000889]}, {"id": 6771, "name": "W 54 St & 6 Ave", "address": "W 54 St & 6 Ave, Manhattan Community Board 5, NY 10111", "type": "bike-station", "grid-id": 647, "b-score": null, "coordinates": [-73.98, 40.76]}, {"id": 6498, "name": "E 47 St & 2 Ave", "address": "E 47 St & 2 Ave, Manhattan Community Board 6, NY 10017", "type": "bike-station", "grid-id": 846, "b-score": null, "coordinates": [-73.97032517, 40.75323098]}, {"id": 7842, "name": "Amsterdam Ave & W 131 St", "address": "Amsterdam Ave & W 131 St, Manhattan Community Board 9, NY 10027", "type": "bike-station", "grid-id": 1013, "b-score": null, "coordinates": [-73.954245925, 40.816276073]}, {"id": 6206, "name": "E 30 St & Park Ave S", "address": "E 30 St & Park Ave S, Manhattan Community Board 5, NY 10016", "type": "bike-station", "grid-id": 507, "b-score": null, "coordinates": [-73.98303529, 40.74444921]}, {"id": 7382, "name": "W 84 St & Columbus Ave", "address": "W 84 St & Columbus Ave, Manhattan Community Board 7, NY 10024", "type": "bike-station", "grid-id": 686, "b-score": null, "coordinates": [-73.973001838, 40.785024166]}, {"id": 7992, "name": "Bradhurst Ave & W 148 St", "address": "Bradhurst Ave & W 148 St, nan, NY 10039", "type": "bike-station", "grid-id": 1283, "b-score": null, "coordinates": [-73.941548824, 40.824976206]}, {"id": 6723, "name": "E 58 St & 1 Ave (NW Corner)", "address": "E 58 St & 1 Ave (NW Corner), Manhattan Community Board 6, NY 10022", "type": "bike-station", "grid-id": 922, "b-score": null, "coordinates": [-73.962682724, 40.759253025]}, {"id": 6824, "name": "W 47 St & 10 Ave", "address": "W 47 St & 10 Ave, Manhattan Community Board 4, NY 10036", "type": "bike-station", "grid-id": 325, "b-score": null, "coordinates": [-73.992981195, 40.762713432]}, {"id": 5190, "name": "Madison St & Clinton St", "address": "Madison St & Clinton St, Manhattan Community Board 3, NY 10002", "type": "bike-station", "grid-id": 480, "b-score": null, "coordinates": [-73.98776323, 40.71269042]}, {"id": 5914, "name": "Greenwich Ave & Charles St", "address": "Greenwich Ave & Charles St, Manhattan Community Board 2, NY 10014", "type": "bike-station", "grid-id": 264, "b-score": null, "coordinates": [-74.000271, 40.735238]}, {"id": 6569, "name": "W 35 St & Dyer Ave", "address": "W 35 St & Dyer Ave, Manhattan Community Board 4, NY 10001", "type": "bike-station", "grid-id": 291, "b-score": null, "coordinates": [-73.99740189313889, 40.754691750226016]}, {"id": 7646, "name": "W 110 St & Amsterdam Ave", "address": "W 110 St & Amsterdam Ave, Manhattan Community Board 9, NY 10025", "type": "bike-station", "grid-id": 898, "b-score": null, "coordinates": [-73.96295, 40.802692]}, {"id": 7286, "name": "E 91 St & 2 Ave", "address": "E 91 St & 2 Ave, Manhattan Community Board 8, NY 10128", "type": "bike-station", "grid-id": 1211, "b-score": null, "coordinates": [-73.94963040947914, 40.78115276427916]}, {"id": 5636, "name": "E 1 St & Bowery", "address": "E 1 St & Bowery, Manhattan Community Board 3, NY 10003", "type": "bike-station", "grid-id": 345, "b-score": null, "coordinates": [-73.99213135242462, 40.72486122254819]}, {"id": 7595, "name": "Columbus Ave & W 103 St", "address": "Columbus Ave & W 103 St, Bloomingdale, NY 10025", "type": "bike-station", "grid-id": 861, "b-score": null, "coordinates": [-73.96429503, 40.797091126]}, {"id": 7463, "name": "E 103 St & Lexington Ave", "address": "E 103 St & Lexington Ave, East Harlem, NY 10037", "type": "bike-station", "grid-id": 1157, "b-score": null, "coordinates": [-73.946876884, 40.794588208]}, {"id": 8655, "name": "Dyckman St & Staff St", "address": "Dyckman St & Staff St, Fort George, NY 10034", "type": "bike-station", "grid-id": 1440, "b-score": null, "coordinates": [-73.931537, 40.868846]}, {"id": 6526, "name": "8 Ave & W 38 St", "address": "8 Ave & W 38 St, Manhattan Community Board 5, NY 10018", "type": "bike-station", "grid-id": 331, "b-score": null, "coordinates": [-73.991768837, 40.754406214]}, {"id": 6464, "name": "E 44 St & Lexington Ave", "address": "E 44 St & Lexington Ave, Manhattan Community Board 6, NY 10017", "type": "bike-station", "grid-id": 704, "b-score": null, "coordinates": [-73.975028515, 40.752685189]}, {"id": 7981, "name": "Broadway & W 142 St", "address": "Broadway & W 142 St, Manhattan Community Board 9, NY 10031", "type": "bike-station", "grid-id": 1050, "b-score": null, "coordinates": [-73.951627254, 40.824737787]}, {"id": 7235, "name": "E 88 St & 1 Ave", "address": "E 88 St & 1 Ave, Manhattan Community Board 8, NY 10128", "type": "bike-station", "grid-id": 1166, "b-score": null, "coordinates": [-73.9488134, 40.778301]}, {"id": 6953, "name": "E 74 St & 1 Ave", "address": "E 74 St & 1 Ave, Lenox Hill, NY 10021", "type": "bike-station", "grid-id": 1039, "b-score": null, "coordinates": [-73.95482273, 40.7689738]}, {"id": 6779, "name": "Broadway & W 53 St", "address": "Broadway & W 53 St, Manhattan Community Board 5, NY 10019", "type": "bike-station", "grid-id": 497, "b-score": null, "coordinates": [-73.98268129, 40.76344058]}, {"id": 4993, "name": "Old Slip & South St", "address": "Old Slip & South St, Financial District, NY 10005", "type": "bike-station", "grid-id": 132, "b-score": null, "coordinates": [-74.007867872715, 40.70336686695866]}, {"id": 5326, "name": "Stanton St & Mangin St", "address": "Stanton St & Mangin St, Manhattan Community Board 3, NY 10002", "type": "bike-station", "grid-id": 671, "b-score": null, "coordinates": [-73.97628939, 40.71782143]}, {"id": 5065, "name": "Cliff St & Fulton St", "address": "Cliff St & Fulton St, Manhattan Community Board 1, NY 10038", "type": "bike-station", "grid-id": 97, "b-score": null, "coordinates": [-74.00495, 40.70838]}, {"id": 7741, "name": "Morningside Ave & W 123 St", "address": "Morningside Ave & W 123 St, Manhattan Community Board 9, NY 10027", "type": "bike-station", "grid-id": 976, "b-score": null, "coordinates": [-73.955224514, 40.809882283]}, {"id": 8187, "name": "Edgecombe Ave & W 167 St", "address": "Edgecombe Ave & W 167 St, Manhattan Community Board 12, NY 10032", "type": "bike-station", "grid-id": 1364, "b-score": null, "coordinates": [-73.936034679, 40.838279605]}, {"id": 6089, "name": "Lexington Ave & E 26 St", "address": "Lexington Ave & E 26 St, Manhattan Community Board 5, NY 10016", "type": "bike-station", "grid-id": 510, "b-score": null, "coordinates": [-73.983281493, 40.741759062]}, {"id": 6876, "name": "Central Park S & 6 Ave", "address": "Central Park S & 6 Ave, nan, NY 10105", "type": "bike-station", "grid-id": 644, "b-score": null, "coordinates": [-73.976354361, 40.76595366]}, {"id": 6890, "name": "W 50 St & 10 Ave", "address": "W 50 St & 10 Ave, Manhattan Community Board 4, NY 10019", "type": "bike-station", "grid-id": 363, "b-score": null, "coordinates": [-73.99194359779358, 40.76473420006519]}, {"id": 7631, "name": "Frederick Douglass Blvd & W 112 St", "address": "Frederick Douglass Blvd & W 112 St, Manhattan Community Board 10, NY 10026", "type": "bike-station", "grid-id": 981, "b-score": null, "coordinates": [-73.957292199, 40.801604986]}, {"id": 6659, "name": "E 53 St & Madison Ave", "address": "E 53 St & Madison Ave, Manhattan Community Board 5, NY 10022", "type": "bike-station", "grid-id": 701, "b-score": null, "coordinates": [-73.974147081, 40.759513378]}, {"id": 5922, "name": "Bank St & Hudson St", "address": "Bank St & Hudson St, Manhattan Community Board 2, NY 10014", "type": "bike-station", "grid-id": 150, "b-score": null, "coordinates": [-74.00618026, 40.73652889]}, {"id": 5779, "name": "1 Ave & E 16 St", "address": "1 Ave & E 16 St, Manhattan Community Board 6, NY 10009", "type": "bike-station", "grid-id": 515, "b-score": null, "coordinates": [-73.98165557, 40.73221853]}, {"id": 5453, "name": "Rivington St & Chrystie St", "address": "Rivington St & Chrystie St, Manhattan Community Board 3, NY 10002", "type": "bike-station", "grid-id": 348, "b-score": null, "coordinates": [-73.9919254, 40.72110063]}, {"id": 7059, "name": "11 Ave & W 59 St", "address": "11 Ave & W 59 St, Manhattan Community Board 4, NY 10069", "type": "bike-station", "grid-id": 360, "b-score": null, "coordinates": [-73.99046033620834, 40.77149671054441]}, {"id": 6072, "name": "8 Ave & W 16 St", "address": "8 Ave & W 16 St, Chelsea District, NY 10011", "type": "bike-station", "grid-id": 148, "b-score": null, "coordinates": [-74.001702, 40.740983]}, {"id": 6098, "name": "Broadway & E 21 St", "address": "Broadway & E 21 St, Manhattan Community Board 5, NY 10010", "type": "bike-station", "grid-id": 378, "b-score": null, "coordinates": [-73.98941803, 40.740014553]}, {"id": 7634, "name": "W 106 St & Amsterdam Ave", "address": "W 106 St & Amsterdam Ave, Bloomingdale, NY 10025", "type": "bike-station", "grid-id": 819, "b-score": null, "coordinates": [-73.966496706, 40.800514698]}, {"id": 8336, "name": "Wadsworth Ave & W 179 St", "address": "Wadsworth Ave & W 179 St, Hudson Heights, NY 10033", "type": "bike-station", "grid-id": 1359, "b-score": null, "coordinates": [-73.935924649, 40.848088384]}, {"id": 6854, "name": "W 50 St & 9 Ave", "address": "W 50 St & 9 Ave, Manhattan Community Board 4, NY 10019", "type": "bike-station", "grid-id": 407, "b-score": null, "coordinates": [-73.989311218, 40.763702631]}, {"id": 7028, "name": "3 Ave & E 72 St", "address": "3 Ave & E 72 St, Manhattan Community Board 8, NY 10035", "type": "bike-station", "grid-id": 957, "b-score": null, "coordinates": [-73.96060712, 40.7699426]}, {"id": 5746, "name": "E 11 St & 1 Ave", "address": "E 11 St & 1 Ave, Manhattan Community Board 3, NY 10009", "type": "bike-station", "grid-id": 470, "b-score": null, "coordinates": [-73.98426726, 40.72953837]}, {"id": 6700, "name": "W 51 St & Rockefeller Plaza", "address": "W 51 St & Rockefeller Plaza, Manhattan Community Board 5, NY 10111", "type": "bike-station", "grid-id": 597, "b-score": null, "coordinates": [-73.97811613976955, 40.75973805251143]}, {"id": 4889, "name": "Bus Slip & State St", "address": "Bus Slip & State St, Financial District, NY 10004", "type": "bike-station", "grid-id": 41, "b-score": null, "coordinates": [-74.013942, 40.701907]}, {"id": 7599, "name": "E 115 St & Lexington Ave", "address": "E 115 St & Lexington Ave, Manhattan Community Board 11, NY 10029", "type": "bike-station", "grid-id": 1201, "b-score": null, "coordinates": [-73.942343235, 40.79796648]}, {"id": 6373, "name": "W 30 St & 8 Ave", "address": "W 30 St & 8 Ave, Manhattan Community Board 5, NY 10001", "type": "bike-station", "grid-id": 293, "b-score": null, "coordinates": [-73.9952078461647, 40.74965268472847]}, {"id": 7458, "name": "W 87 St & Amsterdam Ave", "address": "W 87 St & Amsterdam Ave, Manhattan Community Board 7, NY 10024", "type": "bike-station", "grid-id": 684, "b-score": null, "coordinates": [-73.9747, 40.78839]}, {"id": 7338, "name": "2 Ave & E 96 St", "address": "2 Ave & E 96 St, Manhattan Community Board 8, NY 10035", "type": "bike-station", "grid-id": 1162, "b-score": null, "coordinates": [-73.9471673, 40.7839636]}, {"id": 7265, "name": "E 89 St & 3 Ave", "address": "E 89 St & 3 Ave, Manhattan Community Board 8, NY 10128", "type": "bike-station", "grid-id": 1074, "b-score": null, "coordinates": [-73.9521667, 40.7806284]}, {"id": 8316, "name": "Audobon Ave & W 179 St", "address": "Audobon Ave & W 179 St, nan, NY 10033", "type": "bike-station", "grid-id": 1405, "b-score": null, "coordinates": [-73.933490157, 40.847072244]}, {"id": 6626, "name": "E 48 St & 5 Ave", "address": "E 48 St & 5 Ave, Midtown East, NY 10017", "type": "bike-station", "grid-id": 598, "b-score": null, "coordinates": [-73.977693558, 40.75748837]}, {"id": 6626, "name": "W 48 St &  Rockefeller Plaza", "address": "W 48 St &  Rockefeller Plaza, Manhattan Community Board 5, NY 10036", "type": "bike-station", "grid-id": 598, "b-score": null, "coordinates": [-73.97929430007935, 40.75776935448309]}, {"id": 6809, "name": "W 56 St & 6 Ave", "address": "W 56 St & 6 Ave, Manhattan Community Board 5, NY 10019", "type": "bike-station", "grid-id": 646, "b-score": null, "coordinates": [-73.97722479, 40.76340613]}, {"id": 6079, "name": "1 Ave & E 30 St", "address": "1 Ave & E 30 St, Manhattan Community Board 6, NY 10016", "type": "bike-station", "grid-id": 658, "b-score": null, "coordinates": [-73.97536082, 40.74144387]}, {"id": 6747, "name": "W 49 St & 8 Ave", "address": "W 49 St & 8 Ave, Manhattan Community Board 4, NY 10019", "type": "bike-station", "grid-id": 407, "b-score": null, "coordinates": [-73.98788205, 40.76227205]}, {"id": 7286, "name": "E 93 St & 2 Ave", "address": "E 93 St & 2 Ave, Manhattan Community Board 8, NY 10128", "type": "bike-station", "grid-id": 1211, "b-score": null, "coordinates": [-73.9489196240902, 40.782454175279874]}, {"id": 5772, "name": "Morton St & Washington St", "address": "Morton St & Washington St, West Village, NY 10014", "type": "bike-station", "grid-id": 84, "b-score": null, "coordinates": [-74.00887, 40.73115]}, {"id": 8353, "name": "Amsterdam Ave & W 183 St", "address": "Amsterdam Ave & W 183 St, Fort George, NY 10033", "type": "bike-station", "grid-id": 1451, "b-score": null, "coordinates": [-73.930319548, 40.849164724]}, {"id": 7511, "name": "5 Ave & E 103 St", "address": "5 Ave & E 103 St, Manhattan Community Board 11, NY 10029", "type": "bike-station", "grid-id": 1068, "b-score": null, "coordinates": [-73.952547908, 40.792251587]}, {"id": 5343, "name": "Orchard St & Grand St", "address": "Orchard St & Grand St, Manhattan Community Board 3, NY 10002", "type": "bike-station", "grid-id": 390, "b-score": null, "coordinates": [-73.990552783, 40.717348814]}, {"id": 7175, "name": "Columbus Ave & W 72 St", "address": "Columbus Ave & W 72 St, Manhattan Community Board 7, NY 10023", "type": "bike-station", "grid-id": 587, "b-score": null, "coordinates": [-73.97898475, 40.7770575]}, {"id": 5788, "name": "4 Ave & E 12 St", "address": "4 Ave & E 12 St, Manhattan Community Board 2, NY 10003", "type": "bike-station", "grid-id": 383, "b-score": null, "coordinates": [-73.99011, 40.732647]}, {"id": 7541, "name": "W 95 St & Broadway", "address": "W 95 St & Broadway, Manhattan Community Board 7, NY 10025", "type": "bike-station", "grid-id": 733, "b-score": null, "coordinates": [-73.971888, 40.7937704]}, {"id": 6382, "name": "W 26 St & 10 Ave", "address": "W 26 St & 10 Ave, Chelsea District, NY 10001", "type": "bike-station", "grid-id": 179, "b-score": null, "coordinates": [-74.002950346, 40.749717753]}, {"id": 5922, "name": "Greenwich St & Perry St", "address": "Greenwich St & Perry St, Manhattan Community Board 2, NY 10014", "type": "bike-station", "grid-id": 150, "b-score": null, "coordinates": [-74.007030606, 40.734527588]}, {"id": 7057, "name": "E 78 St & 2 Ave", "address": "E 78 St & 2 Ave, Manhattan Community Board 8, NY 10075", "type": "bike-station", "grid-id": 1037, "b-score": null, "coordinates": [-73.955730557, 40.772658229]}, {"id": 7579, "name": "Pleasant Ave & E 120 St", "address": "Pleasant Ave & E 120 St, East Harlem, NY 10035", "type": "bike-station", "grid-id": 1463, "b-score": null, "coordinates": [-73.931277752, 40.797462583]}, {"id": 7682, "name": "Park Ave & E 124 St", "address": "Park Ave & E 124 St, Manhattan Community Board 11, NY 10037", "type": "bike-station", "grid-id": 1294, "b-score": null, "coordinates": [-73.9396861, 40.8045555]}, {"id": 6535, "name": "W 34 St & Hudson Blvd E", "address": "W 34 St & Hudson Blvd E, Manhattan Community Board 4, NY 10036", "type": "bike-station", "grid-id": 214, "b-score": null, "coordinates": [-73.989638209, 40.758475661]}, {"id": 5578, "name": "Watts St & Greenwich St", "address": "Watts St & Greenwich St, Manhattan Community Board 1, NY 10005", "type": "bike-station", "grid-id": 88, "b-score": null, "coordinates": [-74.00965965, 40.72405549]}, {"id": 7281, "name": "W 76 St & Columbus Ave", "address": "W 76 St & Columbus Ave, nan, NY 10023", "type": "bike-station", "grid-id": 637, "b-score": null, "coordinates": [-73.977300406, 40.780263662]}, {"id": 7625, "name": "E 118 St & Park Ave", "address": "E 118 St & Park Ave, East Harlem, NY 10035", "type": "bike-station", "grid-id": 1296, "b-score": null, "coordinates": [-73.9419949, 40.8005385]}, {"id": 6345, "name": "E 39 St & 2 Ave", "address": "E 39 St & 2 Ave, Manhattan Community Board 6, NY 10016", "type": "bike-station", "grid-id": 706, "b-score": null, "coordinates": [-73.97487998, 40.748154521]}, {"id": 5506, "name": "Ave D & E 8 St", "address": "Ave D & E 8 St, Manhattan Community Board 3, NY 10009", "type": "bike-station", "grid-id": 668, "b-score": null, "coordinates": [-73.97574813, 40.72368361]}, {"id": 6215, "name": "W 27 St & 6 Ave", "address": "W 27 St & 6 Ave, Chelsea District, NY 10001", "type": "bike-station", "grid-id": 376, "b-score": null, "coordinates": [-73.99, 40.75]}, {"id": 7658, "name": "Frederick Douglass Blvd & W 115 St", "address": "Frederick Douglass Blvd & W 115 St, Manhattan Community Board 10, NY 10026", "type": "bike-station", "grid-id": 1019, "b-score": null, "coordinates": [-73.9559308, 40.8038654]}, {"id": 5602, "name": "Greene St & Prince St", "address": "Greene St & Prince St, Manhattan Community Board 2, NY 10012", "type": "bike-station", "grid-id": 231, "b-score": null, "coordinates": [-73.99930492043495, 40.72511734422387]}, {"id": 8108, "name": "Riverside Dr & W 153 St", "address": "Riverside Dr & W 153 St, Hamilton Heights, NY 10031", "type": "bike-station", "grid-id": 1089, "b-score": null, "coordinates": [-73.949702, 40.832164]}, {"id": 6422, "name": "E 43 St & 2 Ave", "address": "E 43 St & 2 Ave, Turtle Bay, NY 10017", "type": "bike-station", "grid-id": 757, "b-score": null, "coordinates": [-73.97121414, 40.75022392]}, {"id": 6004, "name": "E 27 St & 1 Ave", "address": "E 27 St & 1 Ave, Manhattan Community Board 6, NY 10016", "type": "bike-station", "grid-id": 659, "b-score": null, "coordinates": [-73.976806, 40.739445]}, {"id": 6425, "name": "11 Ave & W 27 St", "address": "11 Ave & W 27 St, Manhattan Community Board 4, NY 10001", "type": "bike-station", "grid-id": 142, "b-score": null, "coordinates": [-74.005226, 40.751396]}, {"id": 5406, "name": "Pitt St & Stanton St", "address": "Pitt St & Stanton St, Lower East Side, NY 10009", "type": "bike-station", "grid-id": 522, "b-score": null, "coordinates": [-73.98178024, 40.71926081]}, {"id": 7288, "name": "Riverside Dr & W 72 St", "address": "Riverside Dr & W 72 St, nan, NY 10069", "type": "bike-station", "grid-id": 441, "b-score": null, "coordinates": [-73.98562431335449, 40.78057799010334]}, {"id": 5470, "name": "N Moore St & Hudson St", "address": "N Moore St & Hudson St, Manhattan Community Board 1, NY 10013", "type": "bike-station", "grid-id": 90, "b-score": null, "coordinates": [-74.00844320654869, 40.71996118117138]}, {"id": 6551, "name": "E 43 St & Madison Ave", "address": "E 43 St & Madison Ave, Midtown East, NY 10017", "type": "bike-station", "grid-id": 550, "b-score": null, "coordinates": [-73.97896572947502, 40.75354681867074]}, {"id": 7745, "name": "W 120 St & Claremont Ave", "address": "W 120 St & Claremont Ave, Manhattan Community Board 9, NY 10027", "type": "bike-station", "grid-id": 853, "b-score": null, "coordinates": [-73.9634, 40.8109494]}, {"id": 6667, "name": "W 47 St & 6 Ave", "address": "W 47 St & 6 Ave, Manhattan Community Board 5, NY 10111", "type": "bike-station", "grid-id": 500, "b-score": null, "coordinates": [-73.98255, 40.758397]}, {"id": 7113, "name": "East End Ave & E 86 St", "address": "East End Ave & E 86 St, Manhattan Community Board 8, NY 10028", "type": "bike-station", "grid-id": 1214, "b-score": null, "coordinates": [-73.944579244, 40.775048852]}, {"id": 8547, "name": "Broadway & Ellwood St", "address": "Broadway & Ellwood St, Manhattan Community Board 12, NY 10040", "type": "bike-station", "grid-id": 1474, "b-score": null, "coordinates": [-73.929862618, 40.862004399]}, {"id": 6682, "name": "E 58 St & 1 Ave (NE Corner)", "address": "E 58 St & 1 Ave (NE Corner), Manhattan Community Board 6, NY 10022", "type": "bike-station", "grid-id": 922, "b-score": null, "coordinates": [-73.96222496, 40.758916855]}, {"id": 8358, "name": "Cabrini Blvd & W 177 St", "address": "Cabrini Blvd & W 177 St, Manhattan Community Board 12, NY 10033", "type": "bike-station", "grid-id": 1270, "b-score": null, "coordinates": [-73.941343, 40.848282]}, {"id": 6786, "name": "W 47 St & 9 Ave", "address": "W 47 St & 9 Ave, Manhattan Community Board 4, NY 10036", "type": "bike-station", "grid-id": 366, "b-score": null, "coordinates": [-73.99007007479668, 40.76153045158114]}, {"id": 7774, "name": "Adam Clayton Powell Blvd & W 130 St", "address": "Adam Clayton Powell Blvd & W 130 St, nan, NY 10039", "type": "bike-station", "grid-id": 1194, "b-score": null, "coordinates": [-73.94600451, 40.812329769]}, {"id": 6398, "name": "W 37 St & 5 Ave", "address": "W 37 St & 5 Ave, Manhattan Community Board 5, NY 10018", "type": "bike-station", "grid-id": 505, "b-score": null, "coordinates": [-73.98338988, 40.75038009]}, {"id": 7340, "name": "West End Ave & W 78 St", "address": "West End Ave & W 78 St, nan, NY 10024", "type": "bike-station", "grid-id": 533, "b-score": null, "coordinates": [-73.981497645, 40.783993125]}, {"id": 5476, "name": "E 2 St & Avenue C", "address": "E 2 St & Avenue C, East Village, NY 10009", "type": "bike-station", "grid-id": 568, "b-score": null, "coordinates": [-73.98085795, 40.7208736]}, {"id": 6013, "name": "Gramercy Park N & Gramercy Park E", "address": "Gramercy Park N & Gramercy Park E, Manhattan Community Board 6, NY 10010", "type": "bike-station", "grid-id": 465, "b-score": null, "coordinates": [-73.98509, 40.73795]}, {"id": 8416, "name": "W 186 St & St. Nicholas Ave", "address": "W 186 St & St. Nicholas Ave, Fort George, NY 10033", "type": "bike-station", "grid-id": 1450, "b-score": null, "coordinates": [-73.931276917, 40.852270603]}, {"id": 8320, "name": "Fort Washington Ave & W 173 St", "address": "Fort Washington Ave & W 173 St, Manhattan Community Board 12, NY 10032", "type": "bike-station", "grid-id": 1271, "b-score": null, "coordinates": [-73.940665007, 40.845186234]}, {"id": 7713, "name": "W 113 St & Broadway", "address": "W 113 St & Broadway, Manhattan Community Board 9, NY 10025", "type": "bike-station", "grid-id": 856, "b-score": null, "coordinates": [-73.964928, 40.805973]}, {"id": 7713, "name": "W 116 St & Broadway", "address": "W 116 St & Broadway, Manhattan Community Board 9, NY 10115", "type": "bike-station", "grid-id": 856, "b-score": null, "coordinates": [-73.964228392, 40.808247566]}, {"id": 8049, "name": "Convent Ave & W 151 St", "address": "Convent Ave & W 151 St, Manhattan Community Board 9, NY 10031", "type": "bike-station", "grid-id": 1233, "b-score": null, "coordinates": [-73.94286108, 40.828391194]}, {"id": 7409, "name": "W 84 St & Broadway", "address": "W 84 St & Broadway, nan, NY 10024", "type": "bike-station", "grid-id": 633, "b-score": null, "coordinates": [-73.977112, 40.7867947]}, {"id": 8089, "name": "Broadway & W 153 St", "address": "Broadway & W 153 St, Manhattan Community Board 9, NY 10031", "type": "bike-station", "grid-id": 1183, "b-score": null, "coordinates": [-73.946665, 40.831327]}, {"id": 6098, "name": "W 20 St & 5 Ave", "address": "W 20 St & 5 Ave, Manhattan Community Board 5, NY 10011", "type": "bike-station", "grid-id": 378, "b-score": null, "coordinates": [-73.99103969335556, 40.73972989238724]}, {"id": 7727, "name": "Amsterdam Ave & W 119 St", "address": "Amsterdam Ave & W 119 St, Manhattan Community Board 9, NY 10115", "type": "bike-station", "grid-id": 936, "b-score": null, "coordinates": [-73.9596214, 40.8086249]}, {"id": 7504, "name": "E 106 St & Lexington Ave", "address": "E 106 St & Lexington Ave, Manhattan Community Board 11, NY 10029", "type": "bike-station", "grid-id": 1205, "b-score": null, "coordinates": [-73.945993, 40.791976]}, {"id": 8085, "name": "Harlem River Dr & W 155 St", "address": "Harlem River Dr & W 155 St, Manhattan Community Board 10, NY 10032", "type": "bike-station", "grid-id": 1279, "b-score": null, "coordinates": [-73.939929, 40.830476]}, {"id": 8613, "name": "10 Ave & W 207 St", "address": "10 Ave & W 207 St, Manhattan Community Board 12, NY 10034", "type": "bike-station", "grid-id": 1547, "b-score": null, "coordinates": [-73.918470979, 40.864849329]}, {"id": 7680, "name": "Cathedral Pkwy & Broadway", "address": "Cathedral Pkwy & Broadway, Bloomingdale, NY 10025", "type": "bike-station", "grid-id": 817, "b-score": null, "coordinates": [-73.967192292, 40.804214001]}, {"id": 5247, "name": "Reade St & Broadway", "address": "Reade St & Broadway, Manhattan Community Board 1, NY 10007", "type": "bike-station", "grid-id": 162, "b-score": null, "coordinates": [-74.005448818, 40.714780331]}, {"id": 7432, "name": "W 90 St & Amsterdam Ave", "address": "W 90 St & Amsterdam Ave, Manhattan Community Board 7, NY 10024", "type": "bike-station", "grid-id": 787, "b-score": null, "coordinates": [-73.97288918495178, 40.79017948095081]}, {"id": 5721, "name": "Thompson St & Bleecker St", "address": "Thompson St & Bleecker St, University Village, NY 10012", "type": "bike-station", "grid-id": 268, "b-score": null, "coordinates": [-73.99968780577183, 40.72840059450829]}, {"id": 7260, "name": "Amsterdam Ave & W 73 St", "address": "Amsterdam Ave & W 73 St, nan, NY 10023", "type": "bike-station", "grid-id": 536, "b-score": null, "coordinates": [-73.98093044757842, 40.77966809007312]}, {"id": 6747, "name": "8 Ave & W 49 St", "address": "8 Ave & W 49 St, Manhattan Community Board 5, NY 10019", "type": "bike-station", "grid-id": 407, "b-score": null, "coordinates": [-73.986096025, 40.761672378]}, {"id": 7340, "name": "Riverside Dr & W 78 St", "address": "Riverside Dr & W 78 St, nan, NY 10024", "type": "bike-station", "grid-id": 533, "b-score": null, "coordinates": [-73.983919263, 40.78394556]}, {"id": 6379, "name": "1 Ave & E 44 St", "address": "1 Ave & E 44 St, Manhattan Community Board 6, NY 10158", "type": "bike-station", "grid-id": 808, "b-score": null, "coordinates": [-73.96905301, 40.75001986]}, {"id": 7652, "name": "Lexington Ave & E 120 St", "address": "Lexington Ave & E 120 St, Manhattan Community Board 11, NY 10035", "type": "bike-station", "grid-id": 1296, "b-score": null, "coordinates": [-73.9398167, 40.8013066]}, {"id": 6650, "name": "E 55 St & 2 Ave", "address": "E 55 St & 2 Ave, Manhattan Community Board 6, NY 10022", "type": "bike-station", "grid-id": 843, "b-score": null, "coordinates": [-73.96603308, 40.75797322]}, {"id": 6030, "name": "W 13 St & 7 Ave", "address": "W 13 St & 7 Ave, Manhattan Community Board 2, NY 10011", "type": "bike-station", "grid-id": 224, "b-score": null, "coordinates": [-73.99994661, 40.73781509]}, {"id": 5391, "name": "Lispenard St & Broadway", "address": "Lispenard St & Broadway, Manhattan Community Board 1, NY 10013", "type": "bike-station", "grid-id": 196, "b-score": null, "coordinates": [-74.00247214, 40.71939226]}, {"id": 6912, "name": "7 Ave & Central Park South", "address": "7 Ave & Central Park South, Manhattan Community Board 5, NY 10019", "type": "bike-station", "grid-id": 593, "b-score": null, "coordinates": [-73.9790689945221, 40.7667405590595]}, {"id": 5687, "name": "King St & Varick St", "address": "King St & Varick St, Manhattan Community Board 2, NY 10014", "type": "bike-station", "grid-id": 192, "b-score": null, "coordinates": [-74.00536268949507, 40.72789701409023]}, {"id": 5905, "name": "Broadway & E 14 St", "address": "Broadway & E 14 St, Manhattan Community Board 2, NY 10003", "type": "bike-station", "grid-id": 381, "b-score": null, "coordinates": [-73.99092865, 40.734553695]}, {"id": 6560, "name": "W 40 St & 7 Ave", "address": "W 40 St & 7 Ave, Manhattan Community Board 5, NY 10018", "type": "bike-station", "grid-id": 413, "b-score": null, "coordinates": [-73.988154, 40.754818]}, {"id": 5653, "name": "Spring St & Hudson St", "address": "Spring St & Hudson St, Manhattan Community Board 2, NY 10013", "type": "bike-station", "grid-id": 121, "b-score": null, "coordinates": [-74.0076532959938, 40.72583996792375]}, {"id": 7141, "name": "Central Park West & W 72 St", "address": "Central Park West & W 72 St, nan, NY 10023", "type": "bike-station", "grid-id": 639, "b-score": null, "coordinates": [-73.975947022, 40.775933266]}, {"id": 5137, "name": "Fulton St & William St", "address": "Fulton St & William St, Manhattan Community Board 1, NY 10038", "type": "bike-station", "grid-id": 164, "b-score": null, "coordinates": [-74.006832004, 40.709556341]}, {"id": 5414, "name": "Allen St & Rivington St", "address": "Allen St & Rivington St, Manhattan Community Board 3, NY 10002", "type": "bike-station", "grid-id": 389, "b-score": null, "coordinates": [-73.98997825, 40.72019576]}, {"id": 6464, "name": "E 45 St & 3 Ave", "address": "E 45 St & 3 Ave, Manhattan Community Board 6, NY 10017", "type": "bike-station", "grid-id": 704, "b-score": null, "coordinates": [-73.97282625, 40.75255434]}, {"id": 5561, "name": "Mott St & Prince St", "address": "Mott St & Prince St, Manhattan Community Board 2, NY 10012", "type": "bike-station", "grid-id": 307, "b-score": null, "coordinates": [-73.99480012, 40.72317958]}, {"id": 5365, "name": "Columbia St & Rivington St", "address": "Columbia St & Rivington St, Lower East Side, NY 10002", "type": "bike-station", "grid-id": 570, "b-score": null, "coordinates": [-73.98016555, 40.71739973]}, {"id": 5238, "name": "St James Pl & Oliver St", "address": "St James Pl & Oliver St, Manhattan Community Board 3, NY 10038", "type": "bike-station", "grid-id": 277, "b-score": null, "coordinates": [-73.998304367, 40.713113785]}, {"id": 6182, "name": "W 20 St & 7 Ave", "address": "W 20 St & 7 Ave, Chelsea District, NY 10011", "type": "bike-station", "grid-id": 261, "b-score": null, "coordinates": [-73.99726235, 40.74238787]}, {"id": 6801, "name": "E 59 St & Madison Ave", "address": "E 59 St & Madison Ave, nan, NY 10022", "type": "bike-station", "grid-id": 750, "b-score": null, "coordinates": [-73.97109243, 40.76350532]}, {"id": 6197, "name": "E 33 St & 1 Ave", "address": "E 33 St & 1 Ave, Kips Bay, NY 10016", "type": "bike-station", "grid-id": 657, "b-score": null, "coordinates": [-73.97449783980846, 40.74322681432173]}, {"id": 8226, "name": "W 168th S & Fort Washington Ave", "address": "W 168th S & Fort Washington Ave, Manhattan Community Board 12, NY 10032", "type": "bike-station", "grid-id": 1225, "b-score": null, "coordinates": [-73.9422395825386, 40.84210236102173]}, {"id": 7937, "name": "St. Nicholas Terrace & Convent Ave", "address": "St. Nicholas Terrace & Convent Ave, Manhattan Community Board 9, NY 10031", "type": "bike-station", "grid-id": 1142, "b-score": null, "coordinates": [-73.947868, 40.821294]}, {"id": 5024, "name": "Water St &  Fletcher St", "address": "Water St &  Fletcher St, Manhattan Community Board 1, NY 10004", "type": "bike-station", "grid-id": 166, "b-score": null, "coordinates": [-74.005447984, 40.706693172]}, {"id": 7627, "name": "Lenox Ave & W 115 St", "address": "Lenox Ave & W 115 St, Manhattan Community Board 10, NY 10037", "type": "bike-station", "grid-id": 1106, "b-score": null, "coordinates": [-73.950127006, 40.801162601]}, {"id": 8191, "name": "Broadway & W 165 St", "address": "Broadway & W 165 St, Manhattan Community Board 12, NY 10032", "type": "bike-station", "grid-id": 1275, "b-score": null, "coordinates": [-73.941336989, 40.839020133]}, {"id": 7567, "name": "Lexington Ave & E 111 St", "address": "Lexington Ave & E 111 St, Manhattan Community Board 11, NY 10037", "type": "bike-station", "grid-id": 1251, "b-score": null, "coordinates": [-73.9441232, 40.7954121]}, {"id": 5593, "name": "E 1 St & 1 Ave", "address": "E 1 St & 1 Ave, Manhattan Community Board 3, NY 10012", "type": "bike-station", "grid-id": 385, "b-score": null, "coordinates": [-73.98864984512329, 40.72335597960796]}, {"id": 6969, "name": "E 66 St & Madison Ave", "address": "E 66 St & Madison Ave, Manhattan Community Board 8, NY 10021", "type": "bike-station", "grid-id": 798, "b-score": null, "coordinates": [-73.96845281124115, 40.76800889305947]}, {"id": 56758, "name": "nan", "address": "nan, Manhattan Community Board 4, NY 10019", "type": "bike-station", "grid-id": 361, "b-score": null, "coordinates": [-73.99, 40.77]}, {"id": 7756, "name": "St. Nicholas Ave & W 126 St", "address": "St. Nicholas Ave & W 126 St, Manhattan Community Board 10, NY 10040", "type": "bike-station", "grid-id": 1057, "b-score": null, "coordinates": [-73.9518776, 40.8114323]}, {"id": 7809, "name": "E 138 St & 5 Av", "address": "E 138 St & 5 Av, East Harlem, NY 10030", "type": "bike-station", "grid-id": 1377, "b-score": null, "coordinates": [-73.936153, 40.81449]}, {"id": 7753, "name": "Lenox Ave & W 130 St", "address": "Lenox Ave & W 130 St, Manhattan Community Board 10, NY 10027", "type": "bike-station", "grid-id": 1243, "b-score": null, "coordinates": [-73.9430681, 40.8107922]}, {"id": 7323, "name": "5 Ave & E 87 St", "address": "5 Ave & E 87 St, Manhattan Community Board 8, NY 10128", "type": "bike-station", "grid-id": 950, "b-score": null, "coordinates": [-73.959875, 40.782323]}, {"id": 7520, "name": "Columbus Ave & W 95 St", "address": "Columbus Ave & W 95 St, Manhattan Community Board 7, NY 10025", "type": "bike-station", "grid-id": 824, "b-score": null, "coordinates": [-73.968087, 40.7919557]}, {"id": 5453, "name": "Kenmare St & Elizabeth St", "address": "Kenmare St & Elizabeth St, Manhattan Community Board 2, NY 10012", "type": "bike-station", "grid-id": 348, "b-score": null, "coordinates": [-73.9949, 40.72054]}, {"id": 7855, "name": "Adam Clayton Powell Blvd & W 138 St", "address": "Adam Clayton Powell Blvd & W 138 St, nan, NY 10030", "type": "bike-station", "grid-id": 1239, "b-score": null, "coordinates": [-73.94227767, 40.816916943]}, {"id": 6955, "name": "W 54 St & 11 Ave", "address": "W 54 St & 11 Ave, Manhattan Community Board 4, NY 10019", "type": "bike-station", "grid-id": 322, "b-score": null, "coordinates": [-73.992573, 40.768333]}, {"id": 7832, "name": "W 135 St & Lenox Terrace Pl", "address": "W 135 St & Lenox Terrace Pl, nan, NY 10037", "type": "bike-station", "grid-id": 1333, "b-score": null, "coordinates": [-73.939336, 40.813619]}, {"id": 5181, "name": "Cherry St", "address": "Cherry St, Lower East Side, NY 10002", "type": "bike-station", "grid-id": 623, "b-score": null, "coordinates": [-73.97948148, 40.71219906]}, {"id": 7293, "name": "E 88 St & Park Ave", "address": "E 88 St & Park Ave, Manhattan Community Board 8, NY 10128", "type": "bike-station", "grid-id": 1032, "b-score": null, "coordinates": [-73.955995202, 40.781253934]}, {"id": 6998, "name": "E 72 St & Park Ave", "address": "E 72 St & Park Ave, Manhattan Community Board 8, NY 10021", "type": "bike-station", "grid-id": 875, "b-score": null, "coordinates": [-73.964515209, 40.77155149]}, {"id": 8013, "name": "St Nicholas Ave & W 150 St", "address": "St Nicholas Ave & W 150 St, Manhattan Community Board 9, NY 10031", "type": "bike-station", "grid-id": 1233, "b-score": null, "coordinates": [-73.942722, 40.827212]}, {"id": 8226, "name": "Broadway & W 168 St", "address": "Broadway & W 168 St, Manhattan Community Board 12, NY 10031", "type": "bike-station", "grid-id": 1225, "b-score": null, "coordinates": [-73.939880371, 40.840648055]}, {"id": 5523, "name": "Stanton St & Chrystie St", "address": "Stanton St & Chrystie St, Manhattan Community Board 3, NY 10002", "type": "bike-station", "grid-id": 388, "b-score": null, "coordinates": [-73.991279483, 40.722220063]}, {"id": 7748, "name": "E 132 St & Madison Ave", "address": "E 132 St & Madison Ave, Manhattan Community Board 11, NY 10037", "type": "bike-station", "grid-id": 1380, "b-score": null, "coordinates": [-73.937195, 40.810224]}, {"id": 7872, "name": "Lenox Ave & W 140 St", "address": "Lenox Ave & W 140 St, Manhattan Community Board 10, NY 10037", "type": "bike-station", "grid-id": 1331, "b-score": null, "coordinates": [-73.938812971, 40.817130685]}, {"id": 7443, "name": "E 98 St & Park Ave", "address": "E 98 St & Park Ave, Manhattan Community Board 11, NY 10129", "type": "bike-station", "grid-id": 1069, "b-score": null, "coordinates": [-73.95206, 40.78813]}, {"id": 5351, "name": "Walker St & Baxter St", "address": "Walker St & Baxter St, Manhattan Community Board 1, NY 10013", "type": "bike-station", "grid-id": 235, "b-score": null, "coordinates": [-73.999573, 40.717411]}, {"id": 5159, "name": "South St & Pike St", "address": "South St & Pike St, Manhattan Community Board 3, NY 10038", "type": "bike-station", "grid-id": 354, "b-score": null, "coordinates": [-73.99161100387573, 40.70991806921533]}, {"id": 7188, "name": "Madison Ave & E 82 St", "address": "Madison Ave & E 82 St, Manhattan Community Board 8, NY 10028", "type": "bike-station", "grid-id": 953, "b-score": null, "coordinates": [-73.96069399, 40.7781314]}, {"id": 5436, "name": "Avenue D & E 3 St", "address": "Avenue D & E 3 St, East Village, NY 10009", "type": "bike-station", "grid-id": 619, "b-score": null, "coordinates": [-73.97793172, 40.72082834]}, {"id": 5575, "name": "Avenue D & E 10 St", "address": "Avenue D & E 10 St, East Village, NY 10009", "type": "bike-station", "grid-id": 719, "b-score": null, "coordinates": [-73.97515833377838, 40.72506551015475]}, {"id": 7790, "name": "Lenox Ave & W 133 St", "address": "Lenox Ave & W 133 St, nan, NY 10030", "type": "bike-station", "grid-id": 1289, "b-score": null, "coordinates": [-73.941878, 40.81296]}, {"id": 7543, "name": "3 Ave & E 112 St", "address": "3 Ave & E 112 St, Manhattan Community Board 11, NY 10029", "type": "bike-station", "grid-id": 1299, "b-score": null, "coordinates": [-73.941606, 40.795508]}, {"id": 5288, "name": "Park Pl & Church St", "address": "Park Pl & Church St, Manhattan Community Board 1, NY 10000", "type": "bike-station", "grid-id": 94, "b-score": null, "coordinates": [-74.00935515761375, 40.71334184275907]}, {"id": 5584, "name": "E 7 St & Ave B", "address": "E 7 St & Ave B, Alphabet City, NY 10009", "type": "bike-station", "grid-id": 566, "b-score": null, "coordinates": [-73.98131668567657, 40.7251285241158]}, {"id": 6617, "name": "E 53 St & 3 Ave", "address": "E 53 St & 3 Ave, Manhattan Community Board 6, NY 10035", "type": "bike-station", "grid-id": 804, "b-score": null, "coordinates": [-73.968951344, 40.757276416]}, {"id": 6602, "name": "W 41 St & 8 Ave", "address": "W 41 St & 8 Ave, Manhattan Community Board 5, NY 10036", "type": "bike-station", "grid-id": 369, "b-score": null, "coordinates": [-73.989743233, 40.756476879]}, {"id": 6611, "name": "Hudson Blvd W & W 36 St", "address": "Hudson Blvd W & W 36 St, Hudson Yards, NY 10199", "type": "bike-station", "grid-id": 253, "b-score": null, "coordinates": [-73.99971440439913, 40.75676475086503]}, {"id": 6306, "name": "W 20 St & 10 Ave", "address": "W 20 St & 10 Ave, Chelsea District, NY 10011", "type": "bike-station", "grid-id": 145, "b-score": null, "coordinates": [-74.005141, 40.745686]}, {"id": 5335, "name": "Bialystoker Pl & Delancey St", "address": "Bialystoker Pl & Delancey St, Lower East Side, NY 10002", "type": "bike-station", "grid-id": 523, "b-score": null, "coordinates": [-73.982589602, 40.716184139]}, {"id": 7696, "name": "E 128 St & 3 Ave", "address": "E 128 St & 3 Ave, East Harlem, NY 10035", "type": "bike-station", "grid-id": 1428, "b-score": null, "coordinates": [-73.934069157, 40.805572987]}, {"id": 7954, "name": "Frederick Douglass Blvd & W 145 St", "address": "Frederick Douglass Blvd & W 145 St, nan, NY 10039", "type": "bike-station", "grid-id": 1284, "b-score": null, "coordinates": [-73.941928, 40.823061]}, {"id": 7915, "name": "Edgecombe Ave & W 141 St", "address": "Edgecombe Ave & W 141 St, nan, NY 10030", "type": "bike-station", "grid-id": 1189, "b-score": null, "coordinates": [-73.945144, 40.820681]}, {"id": 7997, "name": "W 145 St & Amsterdam Ave", "address": "W 145 St & Amsterdam Ave, Manhattan Community Board 9, NY 10031", "type": "bike-station", "grid-id": 1140, "b-score": null, "coordinates": [-73.947257, 40.825244]}, {"id": 8065, "name": "W 155 St & Frederick Douglass Blvd", "address": "W 155 St & Frederick Douglass Blvd, nan, NY 10039", "type": "bike-station", "grid-id": 1369, "b-score": null, "coordinates": [-73.936867595, 40.829035163]}, {"id": 8458, "name": "Pinehurst Ave & W 187 St", "address": "Pinehurst Ave & W 187 St, Manhattan Community Board 12, NY 10033", "type": "bike-station", "grid-id": 1310, "b-score": null, "coordinates": [-73.937912107, 40.855262637]}, {"id": 4962, "name": "Whitehall St & Bridge St", "address": "Whitehall St & Bridge St, Financial District, NY 10004", "type": "bike-station", "grid-id": 68, "b-score": null, "coordinates": [-74.0131813287735, 40.70366170524135]}, {"id": 6004, "name": "E 25 St & 1 Ave", "address": "E 25 St & 1 Ave, Manhattan Community Board 6, NY 10010", "type": "bike-station", "grid-id": 659, "b-score": null, "coordinates": [-73.97738662, 40.7381765]}, {"id": 7800, "name": "Amsterdam Ave & W 125 St", "address": "Amsterdam Ave & W 125 St, Manhattan Community Board 9, NY 10115", "type": "bike-station", "grid-id": 974, "b-score": null, "coordinates": [-73.956461, 40.813358]}, {"id": 7823, "name": "Broadway & Moylan Pl", "address": "Broadway & Moylan Pl, Manhattanville, NY 10115", "type": "bike-station", "grid-id": 933, "b-score": null, "coordinates": [-73.9590255, 40.8143256]}, {"id": 7704, "name": "Adam Clayton Powell Blvd & W 123 St", "address": "Adam Clayton Powell Blvd & W 123 St, Manhattan Community Board 10, NY 10027", "type": "bike-station", "grid-id": 1102, "b-score": null, "coordinates": [-73.949231386, 40.807805777]}, {"id": 5947, "name": "W 13 St & 5 Ave", "address": "W 13 St & 5 Ave, Manhattan Community Board 2, NY 10011", "type": "bike-station", "grid-id": 301, "b-score": null, "coordinates": [-73.99431, 40.735445]}, {"id": 7920, "name": "Amsterdam Ave & W 136 St", "address": "Amsterdam Ave & W 136 St, Manhattan Community Board 9, NY 10031", "type": "bike-station", "grid-id": 1053, "b-score": null, "coordinates": [-73.951777458, 40.819826484]}, {"id": 8033, "name": "W 148 St & Amsterdam Ave", "address": "W 148 St & Amsterdam Ave, Manhattan Community Board 9, NY 10031", "type": "bike-station", "grid-id": 1186, "b-score": null, "coordinates": [-73.945909, 40.827075]}, {"id": 5847, "name": "W 10 St & Washington St", "address": "W 10 St & Washington St, Manhattan Community Board 2, NY 10014", "type": "bike-station", "grid-id": 83, "b-score": null, "coordinates": [-74.00851495563984, 40.73342399437081]}, {"id": 8632, "name": "W 204 St & Vermilyea Ave", "address": "W 204 St & Vermilyea Ave, Manhattan Community Board 12, NY 10034", "type": "bike-station", "grid-id": 1533, "b-score": null, "coordinates": [-73.922680378, 40.866366625]}, {"id": 6122, "name": "2 Ave & E 29 St", "address": "2 Ave & E 29 St, Manhattan Community Board 6, NY 10016", "type": "bike-station", "grid-id": 607, "b-score": null, "coordinates": [-73.97809267044067, 40.74172351097472]}, {"id": 7393, "name": "E 97 St & Madison Ave", "address": "E 97 St & Madison Ave, Manhattan Community Board 11, NY 10129", "type": "bike-station", "grid-id": 1070, "b-score": null, "coordinates": [-73.953559, 40.787801]}, {"id": 6322, "name": "E 33 St & 5 Ave", "address": "E 33 St & 5 Ave, Manhattan Community Board 5, NY 10016", "type": "bike-station", "grid-id": 460, "b-score": null, "coordinates": [-73.98490707, 40.74765947]}, {"id": 7932, "name": "W 144 St & Adam Clayton Powell Blvd", "address": "W 144 St & Adam Clayton Powell Blvd, nan, NY 10030", "type": "bike-station", "grid-id": 1329, "b-score": null, "coordinates": [-73.939249, 40.820877]}, {"id": 5073, "name": "Greenwich St & Rector St", "address": "Greenwich St & Rector St, Manhattan Community Board 1, NY 10006", "type": "bike-station", "grid-id": 38, "b-score": null, "coordinates": [-74.0135595202446, 40.70806582380646]}, {"id": 7723, "name": "St Nicholas Ave & Manhattan Ave", "address": "St Nicholas Ave & Manhattan Ave, Manhattan Community Board 10, NY 10027", "type": "bike-station", "grid-id": 1058, "b-score": null, "coordinates": [-73.953149, 40.809725]}, {"id": 8528, "name": "Nagle Ave & Ellwood St", "address": "Nagle Ave & Ellwood St, Manhattan Community Board 12, NY 10040", "type": "bike-station", "grid-id": 1475, "b-score": null, "coordinates": [-73.928602219, 40.860111713]}, {"id": 4953, "name": "South St & Gouverneur Ln", "address": "South St & Gouverneur Ln, Financial District, NY 10041", "type": "bike-station", "grid-id": 133, "b-score": null, "coordinates": [-74.00670227, 40.70355377]}, {"id": 6682, "name": "E 60 St & York Ave", "address": "E 60 St & York Ave, Roosevelt Island, NY 10155", "type": "bike-station", "grid-id": 922, "b-score": null, "coordinates": [-73.959306836, 40.758823395]}, {"id": 7304, "name": "W 82 St & Central Park West", "address": "W 82 St & Central Park West, Manhattan Community Board 7, NY 10024", "type": "bike-station", "grid-id": 739, "b-score": null, "coordinates": [-73.971823335, 40.78301537]}, {"id": 8399, "name": "Fort Washington Ave & W 183 St", "address": "Fort Washington Ave & W 183 St, Manhattan Community Board 12, NY 10033", "type": "bike-station", "grid-id": 1312, "b-score": null, "coordinates": [-73.937854, 40.852252]}, {"id": 6740, "name": "W 51 St & 6 Ave", "address": "W 51 St & 6 Ave, Manhattan Community Board 5, NY 10111", "type": "bike-station", "grid-id": 596, "b-score": null, "coordinates": [-73.98042047, 40.7606597]}, {"id": 8511, "name": "Broadway & W 192 St", "address": "Broadway & W 192 St, Hudson Heights, NY 10040", "type": "bike-station", "grid-id": 1446, "b-score": null, "coordinates": [-73.932173, 40.857994]}, {"id": 7482, "name": "E 106 St & 2 Ave", "address": "E 106 St & 2 Ave, Manhattan Community Board 11, NY 10029", "type": "bike-station", "grid-id": 1302, "b-score": null, "coordinates": [-73.94195795059204, 40.790586067792006]}, {"id": 6450, "name": "8 Ave & W 33 St", "address": "8 Ave & W 33 St, Chelsea District, NY 10122", "type": "bike-station", "grid-id": 293, "b-score": null, "coordinates": [-73.993710399, 40.751713157]}, {"id": 7881, "name": "Old Broadway & W 133 St", "address": "Old Broadway & W 133 St, Manhattanville, NY 10027", "type": "bike-station", "grid-id": 1011, "b-score": null, "coordinates": [-73.955277, 40.818212]}, {"id": 8029, "name": "Macombs Pl & W 152 St", "address": "Macombs Pl & W 152 St, nan, NY 10039", "type": "bike-station", "grid-id": 1326, "b-score": null, "coordinates": [-73.937781334, 40.82653296]}, {"id": 5351, "name": "Bayard St & Baxter St", "address": "Bayard St & Baxter St, Chinatown, NY 10013", "type": "bike-station", "grid-id": 235, "b-score": null, "coordinates": [-73.999679923, 40.715993166]}, {"id": 6960, "name": "3 Ave & E 71 St", "address": "3 Ave & E 71 St, Manhattan Community Board 8, NY 10035", "type": "bike-station", "grid-id": 917, "b-score": null, "coordinates": [-73.96119945, 40.76873687]}, {"id": 7643, "name": "Adam Clayton Powell Blvd & W 115 St", "address": "Adam Clayton Powell Blvd & W 115 St, Manhattan Community Board 10, NY 10026", "type": "bike-station", "grid-id": 1062, "b-score": null, "coordinates": [-73.9532423, 40.802535]}, {"id": 5938, "name": "E 19 St & 3 Ave", "address": "E 19 St & 3 Ave, Manhattan Community Board 6, NY 10003", "type": "bike-station", "grid-id": 422, "b-score": null, "coordinates": [-73.98473765, 40.73624527]}, {"id": 7121, "name": "E 81 St & 1 Ave", "address": "E 81 St & 1 Ave, Manhattan Community Board 8, NY 10028", "type": "bike-station", "grid-id": 1078, "b-score": null, "coordinates": [-73.95197331905365, 40.77377781072322]}, {"id": 5575, "name": "Avenue D & E 12 St", "address": "Avenue D & E 12 St, East Village, NY 10009", "type": "bike-station", "grid-id": 719, "b-score": null, "coordinates": [-73.97422494, 40.72580614]}, {"id": 6416, "name": "W 29 St & 9 Ave", "address": "W 29 St & 9 Ave, Chelsea, NY 10001", "type": "bike-station", "grid-id": 256, "b-score": null, "coordinates": [-73.998268962, 40.750121951]}, {"id": 8579, "name": "10 Ave & W 204 St", "address": "10 Ave & W 204 St, Manhattan Community Board 12, NY 10034", "type": "bike-station", "grid-id": 1548, "b-score": null, "coordinates": [-73.919938445, 40.862753987]}, {"id": 6889, "name": "E 72 St & York Ave", "address": "E 72 St & York Ave, Lenox Hill, NY 10021", "type": "bike-station", "grid-id": 1082, "b-score": null, "coordinates": [-73.953569889, 40.766667485]}, {"id": 5430, "name": "6 Ave & Walker St", "address": "6 Ave & Walker St, Manhattan Community Board 1, NY 10013", "type": "bike-station", "grid-id": 124, "b-score": null, "coordinates": [-74.005225897, 40.719457269]}, {"id": 7720, "name": "Lenox Ave & W 126 St", "address": "Lenox Ave & W 126 St, Manhattan Community Board 10, NY 10027", "type": "bike-station", "grid-id": 1196, "b-score": null, "coordinates": [-73.945321441, 40.808434367]}, {"id": 5980, "name": "E 17 St & Broadway", "address": "E 17 St & Broadway, Manhattan Community Board 5, NY 10010", "type": "bike-station", "grid-id": 380, "b-score": null, "coordinates": [-73.990009546, 40.737020135]}, {"id": 7865, "name": "Broadway & W 131 St", "address": "Broadway & W 131 St, Manhattanville, NY 10027", "type": "bike-station", "grid-id": 972, "b-score": null, "coordinates": [-73.957163, 40.817555]}, {"id": 7414, "name": "3 Ave & E 100 St", "address": "3 Ave & E 100 St, Manhattan Community Board 11, NY 10029", "type": "bike-station", "grid-id": 1160, "b-score": null, "coordinates": [-73.94728331, 40.7877214]}, {"id": 5696, "name": "Pier 40 - Hudson River Park", "address": "Pier 40 - Hudson River Park, Hudson Square, NY 10282", "type": "bike-station", "grid-id": 55, "b-score": null, "coordinates": [-74.01129573583603, 40.7277140777778]}, {"id": 5288, "name": "Warren St & W Broadway", "address": "Warren St & W Broadway, Manhattan Community Board 1, NY 10007", "type": "bike-station", "grid-id": 94, "b-score": null, "coordinates": [-74.00910627, 40.71473993]}, {"id": 7670, "name": "Adam Clayton Powell Blvd & W 118 St", "address": "Adam Clayton Powell Blvd & W 118 St, Manhattan Community Board 10, NY 10026", "type": "bike-station", "grid-id": 1104, "b-score": null, "coordinates": [-73.951475, 40.804372]}, {"id": 7667, "name": "Madison Ave & E 120 St", "address": "Madison Ave & E 120 St, Manhattan Community Board 11, NY 10037", "type": "bike-station", "grid-id": 1247, "b-score": null, "coordinates": [-73.942954, 40.80295]}, {"id": 7154, "name": "E 81 St & 3 Ave", "address": "E 81 St & 3 Ave, Manhattan Community Board 8, NY 10028", "type": "bike-station", "grid-id": 995, "b-score": null, "coordinates": [-73.9567526, 40.77573034]}, {"id": 6098, "name": "Broadway & E 19 St", "address": "Broadway & E 19 St, Chelsea, NY 10003", "type": "bike-station", "grid-id": 378, "b-score": null, "coordinates": [-73.98987293243407, 40.73866091428551]}, {"id": 5167, "name": "St James Pl & Pearl St", "address": "St James Pl & Pearl St, Manhattan Community Board 3, NY 10038", "type": "bike-station", "grid-id": 239, "b-score": null, "coordinates": [-74.00016545, 40.71117416]}, {"id": 5569, "name": "West Broadway & Watts St", "address": "West Broadway & Watts St, Manhattan Community Board 2, NY 10013", "type": "bike-station", "grid-id": 193, "b-score": null, "coordinates": [-74.00314, 40.72323]}, {"id": 4993, "name": "Pearl St & Hanover Square", "address": "Pearl St & Hanover Square, Financial District, NY 10038", "type": "bike-station", "grid-id": 132, "b-score": null, "coordinates": [-74.00926027, 40.7047177]}, {"id": 5669, "name": "St Marks Pl & 2 Ave", "address": "St Marks Pl & 2 Ave, Manhattan Community Board 3, NY 10003", "type": "bike-station", "grid-id": 426, "b-score": null, "coordinates": [-73.98713956, 40.7284186]}, {"id": 5593, "name": "E 2 St & 2 Ave", "address": "E 2 St & 2 Ave, Manhattan Community Board 3, NY 10012", "type": "bike-station", "grid-id": 385, "b-score": null, "coordinates": [-73.99069656, 40.72502876]}, {"id": 5270, "name": "Pike St & E Broadway", "address": "Pike St & E Broadway, Manhattan Community Board 3, NY 10002", "type": "bike-station", "grid-id": 276, "b-score": null, "coordinates": [-73.99293911, 40.71406667]}, {"id": 5422, "name": "Lafayette St & Grand St", "address": "Lafayette St & Grand St, Manhattan Community Board 2, NY 10013", "type": "bike-station", "grid-id": 234, "b-score": null, "coordinates": [-73.99879, 40.72028]}, {"id": 7662, "name": "Lexington Ave & E 127 St", "address": "Lexington Ave & E 127 St, East Harlem, NY 10035", "type": "bike-station", "grid-id": 1382, "b-score": null, "coordinates": [-73.936322, 40.805726]}, {"id": 7837, "name": "St Nicholas Ave & W 134 St", "address": "St Nicholas Ave & W 134 St, nan, NY 10030", "type": "bike-station", "grid-id": 1145, "b-score": null, "coordinates": [-73.948322535, 40.816189528]}, {"id": 5207, "name": "Centre St & Chambers St", "address": "Centre St & Chambers St, Manhattan Community Board 1, NY 10000", "type": "bike-station", "grid-id": 163, "b-score": null, "coordinates": [-74.0046073, 40.71273266]}, {"id": 5679, "name": "Bleecker St & Crosby St", "address": "Bleecker St & Crosby St, NoHo Historic District, NY 10012", "type": "bike-station", "grid-id": 306, "b-score": null, "coordinates": [-73.995177746, 40.726268768]}, {"id": 7014, "name": "Broadway & W 61 St", "address": "Broadway & W 61 St, Manhattan Community Board 7, NY 10034", "type": "bike-station", "grid-id": 541, "b-score": null, "coordinates": [-73.9819684624672, 40.77003010255044]}, {"id": 7587, "name": "W 111 St & 5 Ave", "address": "W 111 St & 5 Ave, Manhattan Community Board 10, NY 10026", "type": "bike-station", "grid-id": 1155, "b-score": null, "coordinates": [-73.9489397406578, 40.79752078124756]}, {"id": 5414, "name": "Delancey St & Eldridge St", "address": "Delancey St & Eldridge St, Manhattan Community Board 3, NY 10002", "type": "bike-station", "grid-id": 389, "b-score": null, "coordinates": [-73.991771102, 40.719107509]}, {"id": 7360, "name": "Amsterdam Ave & W 82 St", "address": "Amsterdam Ave & W 82 St, Manhattan Community Board 7, NY 10024", "type": "bike-station", "grid-id": 634, "b-score": null, "coordinates": [-73.976631641, 40.78529346]}, {"id": 7365, "name": "E 95 St & 3 Ave", "address": "E 95 St & 3 Ave, Manhattan Community Board 8, NY 10128", "type": "bike-station", "grid-id": 1161, "b-score": null, "coordinates": [-73.950503, 40.7849032]}, {"id": 5584, "name": "E 6 St & Avenue B", "address": "E 6 St & Avenue B, Alphabet City, NY 10009", "type": "bike-station", "grid-id": 566, "b-score": null, "coordinates": [-73.98185424, 40.72453734]}, {"id": 5659, "name": "E 10 St & Avenue A", "address": "E 10 St & Avenue A, Alphabet City, NY 10009", "type": "bike-station", "grid-id": 615, "b-score": null, "coordinates": [-73.98142006, 40.72740794]}, {"id": 5506, "name": "E 6 St & Avenue D", "address": "E 6 St & Avenue D, East Village, NY 10009", "type": "bike-station", "grid-id": 668, "b-score": null, "coordinates": [-73.976686716, 40.722437859]}, {"id": 6602, "name": "W 42 St & 8 Ave", "address": "W 42 St & 8 Ave, Manhattan Community Board 4, NY 10036", "type": "bike-station", "grid-id": 369, "b-score": null, "coordinates": [-73.99083519, 40.757688165]}, {"id": 5553, "name": "E 2 St & Avenue A", "address": "E 2 St & Avenue A, East Village, NY 10009", "type": "bike-station", "grid-id": 428, "b-score": null, "coordinates": [-73.98583620786667, 40.72307749068673]}, {"id": 6306, "name": "W 22 St & 10 Ave", "address": "W 22 St & 10 Ave, Chelsea District, NY 10011", "type": "bike-station", "grid-id": 145, "b-score": null, "coordinates": [-74.00451887, 40.74691959]}, {"id": 5065, "name": "Maiden Ln & Pearl St", "address": "Maiden Ln & Pearl St, Manhattan Community Board 1, NY 10038", "type": "bike-station", "grid-id": 97, "b-score": null, "coordinates": [-74.007238865, 40.70717144]}, {"id": 8138, "name": "W 160 St & St. Nicholas Ave", "address": "W 160 St & St. Nicholas Ave, Manhattan Community Board 12, NY 10032", "type": "bike-station", "grid-id": 1277, "b-score": null, "coordinates": [-73.939865, 40.834468]}, {"id": 6560, "name": "Broadway & W 41 St", "address": "Broadway & W 41 St, Manhattan Community Board 5, NY 10036", "type": "bike-station", "grid-id": 413, "b-score": null, "coordinates": [-73.98658032, 40.75513557]}, {"id": 6569, "name": "W 35 St & 9 Ave", "address": "W 35 St & 9 Ave, Manhattan Community Board 4, NY 10001", "type": "bike-station", "grid-id": 291, "b-score": null, "coordinates": [-73.9960889518261, 40.75414519263519]}, {"id": 6030, "name": "W 15 St & 7 Ave", "address": "W 15 St & 7 Ave, Chelsea District, NY 10011", "type": "bike-station", "grid-id": 224, "b-score": null, "coordinates": [-73.99931783, 40.73935542]}, {"id": 8210, "name": "W 163 St & Riverside Dr", "address": "W 163 St & Riverside Dr, Manhattan Community Board 12, NY 10032", "type": "bike-station", "grid-id": 1179, "b-score": null, "coordinates": [-73.945510268, 40.839294672]}, {"id": 8358, "name": "W 180 St & Ft Washington Ave", "address": "W 180 St & Ft Washington Ave, Manhattan Community Board 12, NY 10033", "type": "bike-station", "grid-id": 1270, "b-score": null, "coordinates": [-73.938423, 40.849972]}, {"id": 5230, "name": "Rutgers St & Henry St", "address": "Rutgers St & Henry St, Manhattan Community Board 3, NY 10002", "type": "bike-station", "grid-id": 393, "b-score": null, "coordinates": [-73.99009689688683, 40.71332151208186]}, {"id": 6932, "name": "E 68 St & Madison Ave", "address": "E 68 St & Madison Ave, Manhattan Community Board 8, NY 10021", "type": "bike-station", "grid-id": 837, "b-score": null, "coordinates": [-73.96703464, 40.7691572]}, {"id": 8665, "name": "Isham St & Broadway", "address": "Isham St & Broadway, Manhattan Community Board 12, NY 10034", "type": "bike-station", "grid-id": 1545, "b-score": null, "coordinates": [-73.919689775, 40.867849708]}, {"id": 7860, "name": "Convent Ave & W 135 St", "address": "Convent Ave & W 135 St, Manhattan Community Board 9, NY 10031", "type": "bike-station", "grid-id": 1096, "b-score": null, "coordinates": [-73.951112509, 40.818204641]}, {"id": 6224, "name": "W 20 St & 8 Ave", "address": "W 20 St & 8 Ave, Chelsea District, NY 10011", "type": "bike-station", "grid-id": 259, "b-score": null, "coordinates": [-74.000096083, 40.743946314]}, {"id": 5359, "name": "Leonard St & Church St", "address": "Leonard St & Church St, Manhattan Community Board 1, NY 10013", "type": "bike-station", "grid-id": 92, "b-score": null, "coordinates": [-74.005549, 40.717571]}, {"id": 7971, "name": "W 147 St & Adam Clayton Powell Blvd", "address": "W 147 St & Adam Clayton Powell Blvd, nan, NY 10039", "type": "bike-station", "grid-id": 1328, "b-score": null, "coordinates": [-73.937419534, 40.822761774]}, {"id": 6932, "name": "E 67 St & Park Ave", "address": "E 67 St & Park Ave, Manhattan Community Board 8, NY 10021", "type": "bike-station", "grid-id": 837, "b-score": null, "coordinates": [-73.96592080593109, 40.76780080148132]}, {"id": 6708, "name": "Broadway & W 48 St", "address": "Broadway & W 48 St, nan, NY 10019", "type": "bike-station", "grid-id": 499, "b-score": null, "coordinates": [-73.984618664, 40.760118961]}, {"id": 6297, "name": "8 Ave & W 27 St", "address": "8 Ave & W 27 St, Chelsea, NY 10001", "type": "bike-station", "grid-id": 257, "b-score": null, "coordinates": [-73.996637, 40.747968]}, {"id": 5854, "name": "Stuyvesant Walk & 1 Av Loop", "address": "Stuyvesant Walk & 1 Av Loop, nan, NY 10009", "type": "bike-station", "grid-id": 561, "b-score": null, "coordinates": [-73.978984, 40.73234]}, {"id": 7488, "name": "E 102 St & Park Ave", "address": "E 102 St & Park Ave, Manhattan Community Board 11, NY 10029", "type": "bike-station", "grid-id": 1112, "b-score": null, "coordinates": [-73.95033068, 40.7904828]}, {"id": 7814, "name": "Adam Clayton Powell Blvd & W 132 St", "address": "Adam Clayton Powell Blvd & W 132 St, nan, NY 10027", "type": "bike-station", "grid-id": 1193, "b-score": null, "coordinates": [-73.945218682, 40.813581824]}, {"id": 8018, "name": "Riverside Dr & W 145 St", "address": "Riverside Dr & W 145 St, Manhattan Community Board 9, NY 10031", "type": "bike-station", "grid-id": 1092, "b-score": null, "coordinates": [-73.951975942, 40.827350259]}, {"id": 7735, "name": "E 128 St & Madison Ave", "address": "E 128 St & Madison Ave, East Harlem, NY 10035", "type": "bike-station", "grid-id": 1291, "b-score": null, "coordinates": [-73.939182, 40.80756]}, {"id": 7942, "name": "Riverside Dr & W 138 St", "address": "Riverside Dr & W 138 St, Hamilton Heights, NY 10031", "type": "bike-station", "grid-id": 1009, "b-score": null, "coordinates": [-73.955857, 40.823168]}, {"id": 7524, "name": "West End Ave & W 94 St", "address": "West End Ave & W 94 St, Manhattan Community Board 7, NY 10025", "type": "bike-station", "grid-id": 629, "b-score": null, "coordinates": [-73.974192262, 40.79413259]}, {"id": 8153, "name": "W 163 St & Edgecombe Ave", "address": "W 163 St & Edgecombe Ave, Manhattan Community Board 12, NY 10032", "type": "bike-station", "grid-id": 1321, "b-score": null, "coordinates": [-73.937670469, 40.835866451]}, {"id": 8054, "name": "Riverside Dr & W 148 St", "address": "Riverside Dr & W 148 St, Manhattan Community Board 9, NY 10031", "type": "bike-station", "grid-id": 1090, "b-score": null, "coordinates": [-73.950361848, 40.829322815]}, {"id": 7692, "name": "W 116 St & Amsterdam Ave", "address": "W 116 St & Amsterdam Ave, Manhattan Community Board 9, NY 10027", "type": "bike-station", "grid-id": 937, "b-score": null, "coordinates": [-73.960485816, 40.806633353]}, {"id": 6532, "name": "E 51 St & 1 Ave", "address": "E 51 St & 1 Ave, Manhattan Community Board 6, NY 10022", "type": "bike-station", "grid-id": 845, "b-score": null, "coordinates": [-73.96592976, 40.75455731]}, {"id": 8647, "name": "W 211 St & 10 Ave", "address": "W 211 St & 10 Ave, Manhattan Community Board 12, NY 10034", "type": "bike-station", "grid-id": 1555, "b-score": null, "coordinates": [-73.917328596, 40.867073774]}, {"id": 8381, "name": "W 181 St & Riverside Dr", "address": "W 181 St & Riverside Dr, Hudson Heights, NY 10033", "type": "bike-station", "grid-id": 1268, "b-score": null, "coordinates": [-73.94186, 40.85168]}, {"id": 5769, "name": "Ave C & E 16 St", "address": "Ave C & E 16 St, Manhattan Community Board 6, NY 10009", "type": "bike-station", "grid-id": 716, "b-score": null, "coordinates": [-73.97455215454102, 40.72984830346529]}, {"id": 6483, "name": "W 36 St & 7 Ave", "address": "W 36 St & 7 Ave, Garment District, NY 10018", "type": "bike-station", "grid-id": 371, "b-score": null, "coordinates": [-73.989539, 40.752149]}, {"id": 5736, "name": "E 14 St & Avenue B", "address": "E 14 St & Avenue B, Alphabet City, NY 10009", "type": "bike-station", "grid-id": 614, "b-score": null, "coordinates": [-73.97772429, 40.72938685]}, {"id": 8394, "name": "Amsterdam Ave & W 186 St", "address": "Amsterdam Ave & W 186 St, Fort George, NY 10033", "type": "bike-station", "grid-id": 1480, "b-score": null, "coordinates": [-73.928808, 40.851113]}, {"id": 5137, "name": "Spruce St & Gold St", "address": "Spruce St & Gold St, Manhattan Community Board 1, NY 10038", "type": "bike-station", "grid-id": 164, "b-score": null, "coordinates": [-74.0043228, 40.7103231]}, {"id": 8009, "name": "Adam Clayton Powell Blvd & W 151 St", "address": "Adam Clayton Powell Blvd & W 151 St, Manhattan Community Board 10, NY 10039", "type": "bike-station", "grid-id": 1371, "b-score": null, "coordinates": [-73.936232, 40.825289]}, {"id": 8583, "name": "Sherman Ave & Thayer St", "address": "Sherman Ave & Thayer St, Manhattan Community Board 12, NY 10040", "type": "bike-station", "grid-id": 1500, "b-score": null, "coordinates": [-73.926994, 40.863124]}, {"id": 8299, "name": "Wadsworth Ave & W 175 St", "address": "Wadsworth Ave & W 175 St, Manhattan Community Board 12, NY 10033", "type": "bike-station", "grid-id": 1315, "b-score": null, "coordinates": [-73.937539458, 40.846114635]}, {"id": 8665, "name": "Seaman Ave & Isham St", "address": "Seaman Ave & Isham St, Inwood, NY 10034", "type": "bike-station", "grid-id": 1545, "b-score": null, "coordinates": [-73.920630097, 40.870155931]}, {"id": 8353, "name": "Amsterdam Ave & W 180 St", "address": "Amsterdam Ave & W 180 St, nan, NY 10040", "type": "bike-station", "grid-id": 1451, "b-score": null, "coordinates": [-73.931156874, 40.84751749]}, {"id": 8206, "name": "Amsterdam Ave & W 167 St", "address": "Amsterdam Ave & W 167 St, Manhattan Community Board 12, NY 10032", "type": "bike-station", "grid-id": 1364, "b-score": null, "coordinates": [-73.937044, 40.839443]}, {"id": 8069, "name": "Amsterdam Ave & W 152 St", "address": "Amsterdam Ave & W 152 St, Manhattan Community Board 9, NY 10031", "type": "bike-station", "grid-id": 1232, "b-score": null, "coordinates": [-73.94430685, 40.829427958]}, {"id": 8100, "name": "Frederick Douglass Blvd & Harlem River Dr", "address": "Frederick Douglass Blvd & Harlem River Dr, nan, NY 10039", "type": "bike-station", "grid-id": 1368, "b-score": null, "coordinates": [-73.936407566, 40.830783248]}, {"id": 6884, "name": "W 56 St & 8 Ave", "address": "W 56 St & 8 Ave, Manhattan Community Board 5, NY 10019", "type": "bike-station", "grid-id": 495, "b-score": null, "coordinates": [-73.98313522338867, 40.765959181657976]}, {"id": 8715, "name": "W 218 St & Broadway", "address": "W 218 St & Broadway, Manhattan Community Board 12, NY 10034", "type": "bike-station", "grid-id": 1562, "b-score": null, "coordinates": [-73.91439569, 40.871428251]}, {"id": 8085, "name": "St. Nicholas Ave & W 155 St", "address": "St. Nicholas Ave & W 155 St, Manhattan Community Board 9, NY 10032", "type": "bike-station", "grid-id": 1279, "b-score": null, "coordinates": [-73.941423655, 40.830556631]}, {"id": 7942, "name": "Broadway & W 138 St", "address": "Broadway & W 138 St, Manhattan Community Board 9, NY 10031", "type": "bike-station", "grid-id": 1009, "b-score": null, "coordinates": [-73.95353, 40.82182]}, {"id": 5359, "name": "Church St & Worth St", "address": "Church St & Worth St, Manhattan Community Board 1, NY 10013", "type": "bike-station", "grid-id": 92, "b-score": null, "coordinates": [-74.006248116, 40.71699512]}, {"id": 6297, "name": "W 25 St & 8 Ave", "address": "W 25 St & 8 Ave, Chelsea, NY 10001", "type": "bike-station", "grid-id": 257, "b-score": null, "coordinates": [-73.99732626293645, 40.74649996333341]}, {"id": 7818, "name": "W 129 St & Convent Ave", "address": "W 129 St & Convent Ave, Manhattan Community Board 9, NY 10027", "type": "bike-station", "grid-id": 1056, "b-score": null, "coordinates": [-73.953341842, 40.814408302]}, {"id": 8715, "name": "Broadway & W 220 St", "address": "Broadway & W 220 St, Inwood, NY 10034", "type": "bike-station", "grid-id": 1562, "b-score": null, "coordinates": [-73.912807, 40.872412]}, {"id": 7716, "name": "Lexington Ave & E 128 St", "address": "Lexington Ave & E 128 St, East Harlem, NY 10035", "type": "bike-station", "grid-id": 1382, "b-score": null, "coordinates": [-73.935973287, 40.80658412]}, {"id": 7893, "name": "Adam Clayton Powell Blvd & W 141 St", "address": "Adam Clayton Powell Blvd & W 141 St, nan, NY 10030", "type": "bike-station", "grid-id": 1286, "b-score": null, "coordinates": [-73.941013098, 40.819378257]}, {"id": 5805, "name": "Barrow St & Hudson St", "address": "Barrow St & Hudson St, West Village, NY 10014", "type": "bike-station", "grid-id": 189, "b-score": null, "coordinates": [-74.00674436, 40.73172428]}, {"id": 8226, "name": "W 165 St & Fort Washington Ave", "address": "W 165 St & Fort Washington Ave, Manhattan Community Board 12, NY 10032", "type": "bike-station", "grid-id": 1225, "b-score": null, "coordinates": [-73.942939, 40.84004]}, {"id": 6617, "name": "E 53 St & Lexington Ave", "address": "E 53 St & Lexington Ave, Turtle Bay, NY -1", "type": "bike-station", "grid-id": 804, "b-score": null, "coordinates": [-73.970725775, 40.758147359]}, {"id": 8636, "name": "Dyckman St & Henshaw St", "address": "Dyckman St & Henshaw St, Manhattan Community Board 12, NY 10034", "type": "bike-station", "grid-id": 1471, "b-score": null, "coordinates": [-73.929479837, 40.867446184]}, {"id": 8559, "name": "9 Ave & W 204 St", "address": "9 Ave & W 204 St, Manhattan Community Board 12, NY 10034", "type": "bike-station", "grid-id": 1548, "b-score": null, "coordinates": [-73.91855701804161, 40.86169883507865]}, {"id": 6839, "name": "Grand Army Plaza & Central Park S", "address": "Grand Army Plaza & Central Park S, Manhattan Community Board 5, NY 10153", "type": "bike-station", "grid-id": 697, "b-score": null, "coordinates": [-73.973715, 40.764397]}, {"id": 5453, "name": "Forsyth St & Broome St", "address": "Forsyth St & Broome St, Manhattan Community Board 3, NY 10002", "type": "bike-station", "grid-id": 348, "b-score": null, "coordinates": [-73.99266288, 40.71893904]}, {"id": 7023, "name": "W 59 St & 10 Ave", "address": "W 59 St & 10 Ave, Manhattan Community Board 4, NY 10069", "type": "bike-station", "grid-id": 403, "b-score": null, "coordinates": [-73.988038, 40.770513]}, {"id": 8579, "name": "W 204 St & Nagle Ave", "address": "W 204 St & Nagle Ave, Manhattan Community Board 12, NY 10034", "type": "bike-station", "grid-id": 1548, "b-score": null, "coordinates": [-73.920827, 40.863211]}, {"id": 7925, "name": "W 133 St & 12 Ave", "address": "W 133 St & 12 Ave, Manhattanville, NY 10115", "type": "bike-station", "grid-id": 929, "b-score": null, "coordinates": [-73.959089, 40.820003]}, {"id": 8507, "name": "Dyckman St & 10 Ave", "address": "Dyckman St & 10 Ave, Fort George, NY 10034", "type": "bike-station", "grid-id": 1521, "b-score": null, "coordinates": [-73.9230939745903, 40.85890447538412]}, {"id": 8432, "name": "Amsterdam Ave & W 189 St", "address": "Amsterdam Ave & W 189 St, Manhattan Community Board 12, NY 10040", "type": "bike-station", "grid-id": 1506, "b-score": null, "coordinates": [-73.927123427, 40.853235483]}, {"id": 7606, "name": "W 106 St & Central Park West", "address": "W 106 St & Central Park West, Bloomingdale, NY 10025", "type": "bike-station", "grid-id": 942, "b-score": null, "coordinates": [-73.9605909006, 40.7981856]}, {"id": 7876, "name": "Frederick Douglass Blvd & W 139 St", "address": "Frederick Douglass Blvd & W 139 St, nan, NY 10030", "type": "bike-station", "grid-id": 1190, "b-score": null, "coordinates": [-73.94476890563965, 40.81900581806558]}, {"id": 7783, "name": "Broadway & W 122 St", "address": "Broadway & W 122 St, Manhattan Community Board 9, NY 10027", "type": "bike-station", "grid-id": 893, "b-score": null, "coordinates": [-73.961238861, 40.812077403]}, {"id": 8416, "name": "Broadway & W 185 St", "address": "Broadway & W 185 St, Fort George, NY 10033", "type": "bike-station", "grid-id": 1450, "b-score": null, "coordinates": [-73.93441, 40.852538]}, {"id": 8563, "name": "Nagle Ave & Thayer St", "address": "Nagle Ave & Thayer St, Manhattan Community Board 12, NY 10040", "type": "bike-station", "grid-id": 1501, "b-score": null, "coordinates": [-73.925591, 40.861382]}, {"id": 8172, "name": "Amsterdam Ave & W 162 St", "address": "Amsterdam Ave & W 162 St, Manhattan Community Board 12, NY 10032", "type": "bike-station", "grid-id": 1276, "b-score": null, "coordinates": [-73.939789, 40.83618]}, {"id": 8049, "name": "Edgecombe Ave & W 150 St", "address": "Edgecombe Ave & W 150 St, Manhattan Community Board 9, NY 10031", "type": "bike-station", "grid-id": 1233, "b-score": null, "coordinates": [-73.941277504, 40.827068567]}, {"id": 8496, "name": "Ft. Washington Ave & W 190 St", "address": "Ft. Washington Ave & W 190 St, Hudson Heights, NY 10040", "type": "bike-station", "grid-id": 1354, "b-score": null, "coordinates": [-73.935662, 40.856906]}, {"id": 6239, "name": "E 31 St & 3 Ave", "address": "E 31 St & 3 Ave, Manhattan Community Board 6, NY 10016", "type": "bike-station", "grid-id": 606, "b-score": null, "coordinates": [-73.97972393, 40.743970513]}, {"id": 7344, "name": "E 91 St & Park Ave", "address": "E 91 St & Park Ave, Manhattan Community Board 8, NY 10128", "type": "bike-station", "grid-id": 1031, "b-score": null, "coordinates": [-73.955327, 40.7835016]}, {"id": 8696, "name": "9 Ave & W 219 St", "address": "9 Ave & W 219 St, Manhattan Community Board 12, NY 10034", "type": "bike-station", "grid-id": 1569, "b-score": null, "coordinates": [-73.911503, 40.871094]}, {"id": 8543, "name": "10 Ave & W 202 St", "address": "10 Ave & W 202 St, Manhattan Community Board 12, NY 10034", "type": "bike-station", "grid-id": 1536, "b-score": null, "coordinates": [-73.921417593956, 40.861281970750994]}, {"id": 6699039, "name": "Morgan Warehouse Monolith", "address": "Morgan Warehouse Monolith, Chelsea, NY 10001", "type": "bike-station", "grid-id": 217, "b-score": null, "coordinates": [-74, 40.75]}, {"id": 8474, "name": "W 190 St & Broadway", "address": "W 190 St & Broadway, Hudson Heights, NY 10040", "type": "bike-station", "grid-id": 1400, "b-score": null, "coordinates": [-73.93296986818314, 40.85648733523576]}, {"id": 5847, "name": "Christopher St & Greenwich St", "address": "Christopher St & Greenwich St, Manhattan Community Board 2, NY 10014", "type": "bike-station", "grid-id": 83, "b-score": null, "coordinates": [-74.00711384, 40.73291553]}, {"id": 6593, "name": "6 Ave & W 45 St", "address": "6 Ave & W 45 St, Manhattan Community Board 5, NY 10019", "type": "bike-station", "grid-id": 501, "b-score": null, "coordinates": [-73.982631, 40.756951]}, {"id": 5470, "name": "Greenwich St & Hubert St", "address": "Greenwich St & Hubert St, Manhattan Community Board 1, NY 10013", "type": "bike-station", "grid-id": 90, "b-score": null, "coordinates": [-74.010065, 40.721319]}, {"id": 8732, "name": "W 218 St & Indian Rd", "address": "W 218 St & Indian Rd, Manhattan Community Board 12, NY 10034", "type": "bike-station", "grid-id": 1552, "b-score": null, "coordinates": [-73.91805923, 40.872941852]}, {"id": 5838, "name": "Washington Pl & 6 Ave", "address": "Washington Pl & 6 Ave, Greenwich Village, NY 10012", "type": "bike-station", "grid-id": 227, "b-score": null, "coordinates": [-74.000104666, 40.732173324]}, {"id": 6173, "name": "Broadway & W 25 St", "address": "Broadway & W 25 St, Manhattan Community Board 5, NY 10010", "type": "bike-station", "grid-id": 418, "b-score": null, "coordinates": [-73.989031672, 40.742726803]}, {"id": 4920, "name": "South St & Broad St", "address": "South St & Broad St, Financial District, NY 10038", "type": "bike-station", "grid-id": 69, "b-score": null, "coordinates": [-74.01089876890182, 40.70188858913366]}, {"id": 6266, "name": "9 Ave & W 22 St", "address": "9 Ave & W 22 St, Chelsea District, NY 10011", "type": "bike-station", "grid-id": 182, "b-score": null, "coordinates": [-74.001855731, 40.745643258]}, {"id": 8104, "name": "Amsterdam Ave & W 156 St", "address": "Amsterdam Ave & W 156 St, Manhattan Community Board 12, NY 10040", "type": "bike-station", "grid-id": 1231, "b-score": null, "coordinates": [-73.942608237, 40.832133889]}, {"id": 5797, "name": "MacDougal St & Washington Sq", "address": "MacDougal St & Washington Sq, Washington Square Village, NY 10014", "type": "bike-station", "grid-id": 266, "b-score": null, "coordinates": [-73.99852205, 40.73226398]}, {"id": 5788, "name": "E 12 St & 3 Ave", "address": "E 12 St & 3 Ave, Manhattan Community Board 3, NY 10003", "type": "bike-station", "grid-id": 383, "b-score": null, "coordinates": [-73.988877892, 40.732416153]}, {"id": 7502, "name": "W 92 St & Broadway", "address": "W 92 St & Broadway, Manhattan Community Board 7, NY 10025", "type": "bike-station", "grid-id": 682, "b-score": null, "coordinates": [-73.974280715, 40.792345524]}, {"id": 7059, "name": "West End Ave & W 60 St", "address": "West End Ave & W 60 St, nan, NY 10069", "type": "bike-station", "grid-id": 360, "b-score": null, "coordinates": [-73.99005, 40.77237]}, {"id": 6313, "name": "Lexington Ave & E 36 St", "address": "Lexington Ave & E 36 St, Manhattan Community Board 6, NY 10035", "type": "bike-station", "grid-id": 604, "b-score": null, "coordinates": [-73.9788007736206, 40.7475739589548]}, {"id": 8579, "name": "Academy St & Nagle Ave", "address": "Academy St & Nagle Ave, Manhattan Community Board 12, NY 10034", "type": "bike-station", "grid-id": 1548, "b-score": null, "coordinates": [-73.922661, 40.862562]}, {"id": 8123, "name": "Broadway & W 155 St", "address": "Broadway & W 155 St, Manhattan Community Board 12, NY 10032", "type": "bike-station", "grid-id": 1182, "b-score": null, "coordinates": [-73.94592, 40.83299]}, {"id": 5515, "name": "E 4 St & Ave B", "address": "E 4 St & Ave B, East Village, NY 10009", "type": "bike-station", "grid-id": 520, "b-score": null, "coordinates": [-73.983109355, 40.723463893]}, {"id": 6089, "name": "E 26 St & 3 Ave", "address": "E 26 St & 3 Ave, Manhattan Community Board 6, NY 10016", "type": "bike-station", "grid-id": 510, "b-score": null, "coordinates": [-73.981550217, 40.740592003]}, {"id": 5679, "name": "Mercer St & Bleecker St", "address": "Mercer St & Bleecker St, Greenwich Village, NY 10012", "type": "bike-station", "grid-id": 306, "b-score": null, "coordinates": [-73.99662137031554, 40.72706363348306]}, {"id": 5270, "name": "Market St & Henry St", "address": "Market St & Henry St, Manhattan Community Board 3, NY 10002", "type": "bike-station", "grid-id": 276, "b-score": null, "coordinates": [-73.99446353316307, 40.71310702305908]}, {"id": 5971, "name": "E 22 St & 2 Ave", "address": "E 22 St & 2 Ave, Manhattan Community Board 6, NY 10010", "type": "bike-station", "grid-id": 560, "b-score": null, "coordinates": [-73.980968118, 40.736686826]}, {"id": 5886, "name": "E 20 St & FDR Dr", "address": "E 20 St & FDR Dr, Manhattan Community Board 6, NY 10010", "type": "bike-station", "grid-id": 663, "b-score": null, "coordinates": [-73.9756813647, 40.733208626522426]}, {"id": 7655, "name": "Lenox Ave & W 117 St", "address": "Lenox Ave & W 117 St, Manhattan Community Board 10, NY 10037", "type": "bike-station", "grid-id": 1152, "b-score": null, "coordinates": [-73.949161053, 40.802513957]}, {"id": 6297, "name": "W 26 St & 8 Ave", "address": "W 26 St & 8 Ave, Chelsea District, NY 10001", "type": "bike-station", "grid-id": 257, "b-score": null, "coordinates": [-73.99723551, 40.74734825]}, {"id": 5905, "name": "University Pl & E 14 St", "address": "University Pl & E 14 St, Manhattan Community Board 2, NY 10003", "type": "bike-station", "grid-id": 381, "b-score": null, "coordinates": [-73.992085, 40.734814]}, {"id": 6732, "name": "E 56 St & Madison Ave", "address": "E 56 St & Madison Ave, Manhattan Community Board 5, NY 10022", "type": "bike-station", "grid-id": 751, "b-score": null, "coordinates": [-73.972628, 40.761573]}, {"id": 6717, "name": "9 Ave & W 45 St", "address": "9 Ave & W 45 St, Manhattan Community Board 4, NY 10019", "type": "bike-station", "grid-id": 367, "b-score": null, "coordinates": [-73.9912551, 40.76019252]}, {"id": 6948, "name": "Broadway & W 58 St", "address": "Broadway & W 58 St, Manhattan Community Board 5, NY 10019", "type": "bike-station", "grid-id": 543, "b-score": null, "coordinates": [-73.98169333, 40.76695317]}, {"id": 6925, "name": "2 Ave & E 72 St", "address": "2 Ave & E 72 St, Manhattan Community Board 8, NY 10035", "type": "bike-station", "grid-id": 999, "b-score": null, "coordinates": [-73.95840793848038, 40.7687620293096]}, {"id": 6644, "name": "W 42 St & Dyer Ave", "address": "W 42 St & Dyer Ave, Manhattan Community Board 4, NY 10036", "type": "bike-station", "grid-id": 329, "b-score": null, "coordinates": [-73.993437529, 40.758756638]}, {"id": 5669, "name": "E 6 St & 2 Ave", "address": "E 6 St & 2 Ave, Manhattan Community Board 3, NY 10003", "type": "bike-station", "grid-id": 426, "b-score": null, "coordinates": [-73.98840844631195, 40.72737869323223]}, {"id": 5297, "name": "Vesey Pl & River Terrace", "address": "Vesey Pl & River Terrace, Manhattan Community Board 1, NY 10285", "type": "bike-station", "grid-id": 14, "b-score": null, "coordinates": [-74.01658354, 40.7153379]}, {"id": 6955, "name": "W 56 St & 10 Ave", "address": "W 56 St & 10 Ave, Hell's Kitchen, NY 10019", "type": "bike-station", "grid-id": 322, "b-score": null, "coordinates": [-73.988639, 40.768254]}, {"id": 7084, "name": "E 81 St & York Ave", "address": "E 81 St & York Ave, Manhattan Community Board 8, NY 10075", "type": "bike-station", "grid-id": 1122, "b-score": null, "coordinates": [-73.949738979, 40.772831321]}, {"id": 7092, "name": "E 77 St & 3 Ave", "address": "E 77 St & 3 Ave, Manhattan Community Board 8, NY 10075", "type": "bike-station", "grid-id": 996, "b-score": null, "coordinates": [-73.95856158, 40.77314236]}, {"id": 7795, "name": "Frederick Douglass Blvd & W 129 St", "address": "Frederick Douglass Blvd & W 129 St, nan, NY 10027", "type": "bike-station", "grid-id": 1100, "b-score": null, "coordinates": [-73.9492286, 40.8125511]}, {"id": 7981, "name": "W 140 St & Riverside Dr", "address": "W 140 St & Riverside Dr, Manhattan Community Board 9, NY 10031", "type": "bike-station", "grid-id": 1050, "b-score": null, "coordinates": [-73.954639316, 40.824048638]}, {"id": 8491, "name": "Audubon Ave & Fort George Ave", "address": "Audubon Ave & Fort George Ave, Manhattan Community Board 12, NY 10040", "type": "bike-station", "grid-id": 1504, "b-score": null, "coordinates": [-73.92717361450195, 40.85715781391904]}, {"id": 7113, "name": "E 85 St & East End Ave", "address": "E 85 St & East End Ave, Manhattan Community Board 8, NY 10028", "type": "bike-station", "grid-id": 1214, "b-score": null, "coordinates": [-73.94548773765564, 40.77431811327392]}, {"id": 7580, "name": "W 100 St & Broadway", "address": "W 100 St & Broadway, Bloomingdale, NY 10025", "type": "bike-station", "grid-id": 782, "b-score": null, "coordinates": [-73.97041192, 40.7973721]}, {"id": 7538, "name": "Central Park W & W 97 St", "address": "Central Park W & W 97 St, nan, NY 10025", "type": "bike-station", "grid-id": 862, "b-score": null, "coordinates": [-73.96417066463071, 40.79249519495111]}, {"id": 7563, "name": "E 116 St & 2 Ave", "address": "E 116 St & 2 Ave, East Harlem, NY 10035", "type": "bike-station", "grid-id": 1387, "b-score": null, "coordinates": [-73.937261, 40.796879]}, {"id": 7898, "name": "St Nicholas Ave & W 137 St", "address": "St Nicholas Ave & W 137 St, Manhattan Community Board 10, NY 10030", "type": "bike-station", "grid-id": 1143, "b-score": null, "coordinates": [-73.947568, 40.818477]}, {"id": 7851, "name": "5 Av & W 139 St", "address": "5 Av & W 139 St, nan, NY 10037", "type": "bike-station", "grid-id": 1377, "b-score": null, "coordinates": [-73.935893059, 40.815502048]}, {"id": 8469, "name": "Audubon Ave & W 192 St", "address": "Audubon Ave & W 192 St, Manhattan Community Board 12, NY 10040", "type": "bike-station", "grid-id": 1504, "b-score": null, "coordinates": [-73.92708241939545, 40.85589030603889]}, {"id": 6816, "name": "8 Ave & W 52 St", "address": "8 Ave & W 52 St, Manhattan Community Board 4, NY 10019", "type": "bike-station", "grid-id": 451, "b-score": null, "coordinates": [-73.985205531, 40.763765574]}, {"id": 6517, "name": "W 42 St & 6 Ave", "address": "W 42 St & 6 Ave, Manhattan Community Board 5, NY 10019", "type": "bike-station", "grid-id": 502, "b-score": null, "coordinates": [-73.98455, 40.75492]}, {"id": 5335, "name": "Grand St & Samuel Dickstein Plaza", "address": "Grand St & Samuel Dickstein Plaza, Manhattan Community Board 3, NY 10002", "type": "bike-station", "grid-id": 523, "b-score": null, "coordinates": [-73.98417055606842, 40.71511871996496]}, {"id": 6847, "name": "Broadway & W 56 St", "address": "Broadway & W 56 St, Manhattan Community Board 5, NY 10019", "type": "bike-station", "grid-id": 544, "b-score": null, "coordinates": [-73.982530713, 40.764793873]}, {"id": 7910, "name": "Lenox Ave & W 146 St", "address": "Lenox Ave & W 146 St, nan, NY 10039", "type": "bike-station", "grid-id": 1375, "b-score": null, "coordinates": [-73.936099648, 40.821051836]}, {"id": 5288, "name": "Murray St & Greenwich St", "address": "Murray St & Greenwich St, Manhattan Community Board 1, NY 10279", "type": "bike-station", "grid-id": 94, "b-score": null, "coordinates": [-74.01122331619263, 40.71485150526252]}, {"id": 6839, "name": "E 58 St & Madison Ave", "address": "E 58 St & Madison Ave, Manhattan Community Board 5, NY 10022", "type": "bike-station", "grid-id": 697, "b-score": null, "coordinates": [-73.97209525108337, 40.76302594280519]}, {"id": 6809, "name": "W 55 St & 6 Ave", "address": "W 55 St & 6 Ave, nan, NY 10105", "type": "bike-station", "grid-id": 646, "b-score": null, "coordinates": [-73.978434, 40.763189]}, {"id": 7204, "name": "E 89 St & York Ave", "address": "E 89 St & York Ave, Manhattan Community Board 8, NY 10128", "type": "bike-station", "grid-id": 1213, "b-score": null, "coordinates": [-73.946041, 40.7779453]}, {"id": 7484, "name": "W 87 St & West End Ave", "address": "W 87 St & West End Ave, nan, NY 10024", "type": "bike-station", "grid-id": 631, "b-score": null, "coordinates": [-73.97757, 40.789622]}, {"id": 6575, "name": "E 51 St & 2 Ave", "address": "E 51 St & 2 Ave, Manhattan Community Board 6, NY 10022", "type": "bike-station", "grid-id": 844, "b-score": null, "coordinates": [-73.967641, 40.755293]}, {"id": 6339, "name": "W 25 St & 9 Ave", "address": "W 25 St & 9 Ave, Chelsea District, NY 10001", "type": "bike-station", "grid-id": 219, "b-score": null, "coordinates": [-74.0005722643582, 40.74783260583772]}, {"id": 5509, "name": "Washington St & Laight St", "address": "Washington St & Laight St, Manhattan Community Board 1, NY 10013", "type": "bike-station", "grid-id": 89, "b-score": null, "coordinates": [-74.0106, 40.72231]}, {"id": 8242, "name": "Amsterdam Ave & W 172 St", "address": "Amsterdam Ave & W 172 St, Manhattan Community Board 12, NY 10032", "type": "bike-station", "grid-id": 1362, "b-score": null, "coordinates": [-73.93518126, 40.842100739]}, {"id": 7579, "name": "E 117 St & 1 Ave", "address": "E 117 St & 1 Ave, East Harlem, NY 10035", "type": "bike-station", "grid-id": 1463, "b-score": null, "coordinates": [-73.934566021, 40.796563387]}, {"id": 7123, "name": "W 64 St & Thelonious Monk Circle", "address": "W 64 St & Thelonious Monk Circle, Manhattan Community Board 7, NY 10069", "type": "bike-station", "grid-id": 400, "b-score": null, "coordinates": [-73.989228487, 40.77512145]}]}